{
 "fetched_at": "2026-05-26T13:11:06+09:00",
 "stdid": 305000970,
 "resultList": [
  {
   "ROUTE_NAME": "52",
   "ROUTE_ORD": 1,
   "STOP_ID": 312102033,
   "LNG": 127.16166086,
   "BRT_SUBID": "0",
   "ROUTE_ID": 305000970,
   "STOP_NAME": "완주군청",
   "SERVICE_ID": 32033,
   "NODE_ID": 312102033,
   "STOP_ORD": 1,
   "LAT": 35.90343566
  },
  {
   "ROUTE_NAME": "52",
   "ROUTE_ORD": 2,
   "STOP_ID": 305032743,
   "LNG": 127.16776842,
   "BRT_SUBID": "0",
   "ROUTE_ID": 305000970,
   "STOP_NAME": "운곡모아미래도2차아파트",
   "SERVICE_ID": 36677,
   "NODE_ID": 305032743,
   "STOP_ORD": 2,
   "LAT": 35.90367397
  },
  {
   "ROUTE_NAME": "52",
   "ROUTE_ORD": 3,
   "STOP_ID": 312101640,
   "LNG": 127.17098774,
   "BRT_SUBID": "0",
   "ROUTE_ID": 305000970,
   "STOP_NAME": "지암마을",
   "SERVICE_ID": 31639,
   "NODE_ID": 312101640,
   "STOP_ORD": 3,
   "LAT": 35.90428678
  },
  {
   "ROUTE_NAME": "52",
   "ROUTE_ORD": 4,
   "STOP_ID": 312101651,
   "LNG": 127.17894358,
   "BRT_SUBID": "0",
   "ROUTE_ID": 305000970,
   "STOP_NAME": "덕암마을",
   "SERVICE_ID": 31650,
   "NODE_ID": 312101651,
   "STOP_ORD": 4,
   "LAT": 35.90370641
  },
  {
   "ROUTE_NAME": "52",
   "ROUTE_ORD": 5,
   "STOP_ID": 312101636,
   "LNG": 127.18495453,
   "BRT_SUBID": "0",
   "ROUTE_ID": 305000970,
   "STOP_NAME": "신봉마을",
   "SERVICE_ID": 31635,
   "NODE_ID": 312101636,
   "STOP_ORD": 5,
   "LAT": 35.90342792
  },
  {
   "ROUTE_NAME": "52",
   "ROUTE_ORD": 6,
   "STOP_ID": 312032145,
   "LNG": 127.18461232,
   "BRT_SUBID": "0",
   "ROUTE_ID": 305000970,
   "STOP_NAME": "황제식품",
   "SERVICE_ID": 32145,
   "NODE_ID": 312032145,
   "STOP_ORD": 6,
   "LAT": 35.90540524
  },
  {
   "ROUTE_NAME": "52",
   "ROUTE_ORD": 7,
   "STOP_ID": 312101664,
   "LNG": 127.18226549,
   "BRT_SUBID": "0",
   "ROUTE_ID": 305000970,
   "STOP_NAME": "지암입구",
   "SERVICE_ID": 31663,
   "NODE_ID": 312101664,
   "STOP_ORD": 7,
   "LAT": 35.90923706
  },
  {
   "ROUTE_NAME": "52",
   "ROUTE_ORD": 8,
   "STOP_ID": 312102024,
   "LNG": 127.17985736,
   "BRT_SUBID": "0",
   "ROUTE_ID": 305000970,
   "STOP_NAME": "봉계마을",
   "SERVICE_ID": 32024,
   "NODE_ID": 312102024,
   "STOP_ORD": 8,
   "LAT": 35.91302042
  },
  {
   "ROUTE_NAME": "52",
   "ROUTE_ORD": 9,
   "STOP_ID": 312102026,
   "LNG": 127.17606407,
   "BRT_SUBID": "0",
   "ROUTE_ID": 305000970,
   "STOP_NAME": "신지동마을",
   "SERVICE_ID": 32026,
   "NODE_ID": 312102026,
   "STOP_ORD": 9,
   "LAT": 35.91609041
  },
  {
   "ROUTE_NAME": "52",
   "ROUTE_ORD": 10,
   "STOP_ID": 312102028,
   "LNG": 127.17084841,
   "BRT_SUBID": "0",
   "ROUTE_ID": 305000970,
   "STOP_NAME": "양전마을",
   "SERVICE_ID": 32028,
   "NODE_ID": 312102028,
   "STOP_ORD": 10,
   "LAT": 35.92005625
  },
  {
   "ROUTE_NAME": "52",
   "ROUTE_ORD": 11,
   "STOP_ID": 312101736,
   "LNG": 127.16819719,
   "BRT_SUBID": "0",
   "ROUTE_ID": 305000970,
   "STOP_NAME": "하이트맥주",
   "SERVICE_ID": 31735,
   "NODE_ID": 312101736,
   "STOP_ORD": 11,
   "LAT": 35.92086102
  },
  {
   "ROUTE_NAME": "52",
   "ROUTE_ORD": 12,
   "STOP_ID": 305032805,
   "LNG": 127.163905,
   "BRT_SUBID": "0",
   "ROUTE_ID": 305000970,
   "STOP_NAME": "봉동회차지",
   "SERVICE_ID": 36739,
   "NODE_ID": 305032805,
   "STOP_ORD": 12,
   "LAT": 35.92499
  },
  {
   "ROUTE_NAME": "52",
   "ROUTE_ORD": 13,
   "STOP_ID": 312101766,
   "LNG": 127.16602905,
   "BRT_SUBID": "0",
   "ROUTE_ID": 305000970,
   "STOP_NAME": "완주경찰서",
   "SERVICE_ID": 31765,
   "NODE_ID": 312101766,
   "STOP_ORD": 13,
   "LAT": 35.92709592
  },
  {
   "ROUTE_NAME": "52",
   "ROUTE_ORD": 14,
   "STOP_ID": 312101793,
   "LNG": 127.1686913,
   "BRT_SUBID": "0",
   "ROUTE_ID": 305000970,
   "STOP_NAME": "보상마을",
   "SERVICE_ID": 31792,
   "NODE_ID": 312101793,
   "STOP_ORD": 14,
   "LAT": 35.9320858
  },
  {
   "ROUTE_NAME": "52",
   "ROUTE_ORD": 15,
   "STOP_ID": 312101819,
   "LNG": 127.16833496,
   "BRT_SUBID": "0",
   "ROUTE_ID": 305000970,
   "STOP_NAME": "봉동전통시장.동창햇살창조센터",
   "SERVICE_ID": 31818,
   "NODE_ID": 312101819,
   "STOP_ORD": 15,
   "LAT": 35.9384139
  },
  {
   "ROUTE_NAME": "52",
   "ROUTE_ORD": 16,
   "STOP_ID": 312101828,
   "LNG": 127.16729171,
   "BRT_SUBID": "0",
   "ROUTE_ID": 305000970,
   "STOP_NAME": "봉동농협",
   "SERVICE_ID": 31827,
   "NODE_ID": 312101828,
   "STOP_ORD": 16,
   "LAT": 35.93914303
  },
  {
   "ROUTE_NAME": "52",
   "ROUTE_ORD": 17,
   "STOP_ID": 312101817,
   "LNG": 127.16218734,
   "BRT_SUBID": "0",
   "ROUTE_ID": 305000970,
   "STOP_NAME": "구봉동읍사무소",
   "SERVICE_ID": 31816,
   "NODE_ID": 312101817,
   "STOP_ORD": 17,
   "LAT": 35.93688778
  },
  {
   "ROUTE_NAME": "52",
   "ROUTE_ORD": 18,
   "STOP_ID": 312101815,
   "LNG": 127.1598458,
   "BRT_SUBID": "0",
   "ROUTE_ID": 305000970,
   "STOP_NAME": "완주중",
   "SERVICE_ID": 31814,
   "NODE_ID": 312101815,
   "STOP_ORD": 18,
   "LAT": 35.9357287
  },
  {
   "ROUTE_NAME": "52",
   "ROUTE_ORD": 19,
   "STOP_ID": 312101808,
   "LNG": 127.15571603,
   "BRT_SUBID": "0",
   "ROUTE_ID": 305000970,
   "STOP_NAME": "봉동신기마을",
   "SERVICE_ID": 31807,
   "NODE_ID": 312101808,
   "STOP_ORD": 19,
   "LAT": 35.93495534
  },
  {
   "ROUTE_NAME": "52",
   "ROUTE_ORD": 20,
   "STOP_ID": 312101803,
   "LNG": 127.15152093,
   "BRT_SUBID": "0",
   "ROUTE_ID": 305000970,
   "STOP_NAME": "신중리",
   "SERVICE_ID": 31802,
   "NODE_ID": 312101803,
   "STOP_ORD": 20,
   "LAT": 35.93421416
  },
  {
   "ROUTE_NAME": "52",
   "ROUTE_ORD": 21,
   "STOP_ID": 312101789,
   "LNG": 127.14378914,
   "BRT_SUBID": "0",
   "ROUTE_ID": 305000970,
   "STOP_NAME": "배을마을입구",
   "SERVICE_ID": 31788,
   "NODE_ID": 312101789,
   "STOP_ORD": 21,
   "LAT": 35.93137801
  },
  {
   "ROUTE_NAME": "52",
   "ROUTE_ORD": 22,
   "STOP_ID": 312101784,
   "LNG": 127.1397644,
   "BRT_SUBID": "0",
   "ROUTE_ID": 305000970,
   "STOP_NAME": "상구미리",
   "SERVICE_ID": 31783,
   "NODE_ID": 312101784,
   "STOP_ORD": 22,
   "LAT": 35.92997783
  },
  {
   "ROUTE_NAME": "52",
   "ROUTE_ORD": 23,
   "STOP_ID": 312101780,
   "LNG": 127.13557909,
   "BRT_SUBID": "0",
   "ROUTE_ID": 305000970,
   "STOP_NAME": "하구미리",
   "SERVICE_ID": 31779,
   "NODE_ID": 312101780,
   "STOP_ORD": 23,
   "LAT": 35.92884068
  },
  {
   "ROUTE_NAME": "52",
   "ROUTE_ORD": 24,
   "STOP_ID": 312101765,
   "LNG": 127.1268368,
   "BRT_SUBID": "0",
   "ROUTE_ID": 305000970,
   "STOP_NAME": "삼봉로.구.청완초교",
   "SERVICE_ID": 31764,
   "NODE_ID": 312101765,
   "STOP_ORD": 24,
   "LAT": 35.9271394
  },
  {
   "ROUTE_NAME": "52",
   "ROUTE_ORD": 25,
   "STOP_ID": 312101772,
   "LNG": 127.1253209,
   "BRT_SUBID": "0",
   "ROUTE_ID": 305000970,
   "STOP_NAME": "과학로.구.청완초교",
   "SERVICE_ID": 31771,
   "NODE_ID": 312101772,
   "STOP_ORD": 25,
   "LAT": 35.9289018
  },
  {
   "ROUTE_NAME": "52",
   "ROUTE_ORD": 26,
   "STOP_ID": 312101795,
   "LNG": 127.12539617,
   "BRT_SUBID": "0",
   "ROUTE_ID": 305000970,
   "STOP_NAME": "원수계리",
   "SERVICE_ID": 31794,
   "NODE_ID": 312101795,
   "STOP_ORD": 26,
   "LAT": 35.93270207
  },
  {
   "ROUTE_NAME": "52",
   "ROUTE_ORD": 27,
   "STOP_ID": 312101826,
   "LNG": 127.12563217,
   "BRT_SUBID": "0",
   "ROUTE_ID": 305000970,
   "STOP_NAME": "금강고려화학",
   "SERVICE_ID": 31825,
   "NODE_ID": 312101826,
   "STOP_ORD": 27,
   "LAT": 35.93881728
  },
  {
   "ROUTE_NAME": "52",
   "ROUTE_ORD": 28,
   "STOP_ID": 305032478,
   "LNG": 127.1256453,
   "BRT_SUBID": "0",
   "ROUTE_ID": 305000970,
   "STOP_NAME": "배매산",
   "SERVICE_ID": 36412,
   "NODE_ID": 305032478,
   "STOP_ORD": 28,
   "LAT": 35.9508351
  },
  {
   "ROUTE_NAME": "52",
   "ROUTE_ORD": 29,
   "STOP_ID": 305032380,
   "LNG": 127.1255444,
   "BRT_SUBID": "0",
   "ROUTE_ID": 305000970,
   "STOP_NAME": "데크항공사거리",
   "SERVICE_ID": 36314,
   "NODE_ID": 305032380,
   "STOP_ORD": 29,
   "LAT": 35.95485309
  },
  {
   "ROUTE_NAME": "52",
   "ROUTE_ORD": 30,
   "STOP_ID": 305032300,
   "LNG": 127.1258239,
   "BRT_SUBID": "0",
   "ROUTE_ID": 305000970,
   "STOP_NAME": "새완주병원",
   "SERVICE_ID": 32300,
   "NODE_ID": 305032300,
   "STOP_ORD": 30,
   "LAT": 35.9576391
  },
  {
   "ROUTE_NAME": "52",
   "ROUTE_ORD": 31,
   "STOP_ID": 305032488,
   "LNG": 127.126515,
   "BRT_SUBID": "0",
   "ROUTE_ID": 305000970,
   "STOP_NAME": "둔산코아루1차아파트",
   "SERVICE_ID": 36422,
   "NODE_ID": 305032488,
   "STOP_ORD": 31,
   "LAT": 35.9618481
  },
  {
   "ROUTE_NAME": "52",
   "ROUTE_ORD": 32,
   "STOP_ID": 312101914,
   "LNG": 127.122735,
   "BRT_SUBID": "0",
   "ROUTE_ID": 305000970,
   "STOP_NAME": "둔산코아루2차아파트",
   "SERVICE_ID": 31913,
   "NODE_ID": 312101914,
   "STOP_ORD": 32,
   "LAT": 35.96226927
  },
  {
   "ROUTE_NAME": "52",
   "ROUTE_ORD": 33,
   "STOP_ID": 312032799,
   "LNG": 127.1221527,
   "BRT_SUBID": "0",
   "ROUTE_ID": 305000970,
   "STOP_NAME": "모아엘가아파트",
   "SERVICE_ID": 36268,
   "NODE_ID": 312032799,
   "STOP_ORD": 33,
   "LAT": 35.962892
  },
  {
   "ROUTE_NAME": "52",
   "ROUTE_ORD": 34,
   "STOP_ID": 312032800,
   "LNG": 127.1218837,
   "BRT_SUBID": "0",
   "ROUTE_ID": 305000970,
   "STOP_NAME": "대주코레스",
   "SERVICE_ID": 36269,
   "NODE_ID": 312032800,
   "STOP_ORD": 34,
   "LAT": 35.9658213
  },
  {
   "ROUTE_NAME": "52",
   "ROUTE_ORD": 35,
   "STOP_ID": 312101934,
   "LNG": 127.12637193,
   "BRT_SUBID": "0",
   "ROUTE_ID": 305000970,
   "STOP_NAME": "장구리",
   "SERVICE_ID": 31933,
   "NODE_ID": 312101934,
   "STOP_ORD": 35,
   "LAT": 35.97046888
  },
  {
   "ROUTE_NAME": "52",
   "ROUTE_ORD": 36,
   "STOP_ID": 312101947,
   "LNG": 127.12145454,
   "BRT_SUBID": "0",
   "ROUTE_ID": 305000970,
   "STOP_NAME": "옥동마을",
   "SERVICE_ID": 31946,
   "NODE_ID": 312101947,
   "STOP_ORD": 36,
   "LAT": 35.97780164
  },
  {
   "ROUTE_NAME": "52",
   "ROUTE_ORD": 37,
   "STOP_ID": 312032199,
   "LNG": 127.12066723,
   "BRT_SUBID": "0",
   "ROUTE_ID": 305000970,
   "STOP_NAME": "만동",
   "SERVICE_ID": 32199,
   "NODE_ID": 312032199,
   "STOP_ORD": 37,
   "LAT": 35.98063754
  },
  {
   "ROUTE_NAME": "52",
   "ROUTE_ORD": 38,
   "STOP_ID": 312101951,
   "LNG": 127.11915341,
   "BRT_SUBID": "0",
   "ROUTE_ID": 305000970,
   "STOP_NAME": "무관마을",
   "SERVICE_ID": 31950,
   "NODE_ID": 312101951,
   "STOP_ORD": 38,
   "LAT": 35.98315002
  },
  {
   "ROUTE_NAME": "52",
   "ROUTE_ORD": 39,
   "STOP_ID": 312032196,
   "LNG": 127.11749369,
   "BRT_SUBID": "0",
   "ROUTE_ID": 305000970,
   "STOP_NAME": "백제대입구",
   "SERVICE_ID": 32196,
   "NODE_ID": 312032196,
   "STOP_ORD": 39,
   "LAT": 35.98481421
  },
  {
   "ROUTE_NAME": "52",
   "ROUTE_ORD": 40,
   "STOP_ID": 312101958,
   "LNG": 127.1180655,
   "BRT_SUBID": "0",
   "ROUTE_ID": 305000970,
   "STOP_NAME": "새터",
   "SERVICE_ID": 31957,
   "NODE_ID": 312101958,
   "STOP_ORD": 40,
   "LAT": 35.98889346
  },
  {
   "ROUTE_NAME": "52",
   "ROUTE_ORD": 41,
   "STOP_ID": 312101963,
   "LNG": 127.11957992,
   "BRT_SUBID": "0",
   "ROUTE_ID": 305000970,
   "STOP_NAME": "신촌마을입구",
   "SERVICE_ID": 31962,
   "NODE_ID": 312101963,
   "STOP_ORD": 41,
   "LAT": 35.99267068
  },
  {
   "ROUTE_NAME": "52",
   "ROUTE_ORD": 42,
   "STOP_ID": 312032194,
   "LNG": 127.12243784,
   "BRT_SUBID": "0",
   "ROUTE_ID": 305000970,
   "STOP_NAME": "백제대원룸단지",
   "SERVICE_ID": 32194,
   "NODE_ID": 312032194,
   "STOP_ORD": 42,
   "LAT": 35.99298003
  },
  {
   "ROUTE_NAME": "52",
   "ROUTE_ORD": 43,
   "STOP_ID": 312101967,
   "LNG": 127.12774868,
   "BRT_SUBID": "0",
   "ROUTE_ID": 305000970,
   "STOP_NAME": "백제대",
   "SERVICE_ID": 31966,
   "NODE_ID": 312101967,
   "STOP_ORD": 43,
   "LAT": 35.99473314
  },
  {
   "ROUTE_NAME": "52",
   "ROUTE_ORD": 44,
   "STOP_ID": 312032803,
   "LNG": 127.1301236,
   "BRT_SUBID": "0",
   "ROUTE_ID": 305000970,
   "STOP_NAME": "봉동오투그란데",
   "SERVICE_ID": 36272,
   "NODE_ID": 312032803,
   "STOP_ORD": 44,
   "LAT": 35.9948936
  },
  {
   "ROUTE_NAME": "52",
   "ROUTE_ORD": 45,
   "STOP_ID": 312032202,
   "LNG": 127.13778114,
   "BRT_SUBID": "0",
   "ROUTE_ID": 305000970,
   "STOP_NAME": "비봉파출소",
   "SERVICE_ID": 32202,
   "NODE_ID": 312032202,
   "STOP_ORD": 45,
   "LAT": 35.99652724
  },
  {
   "ROUTE_NAME": "52",
   "ROUTE_ORD": 46,
   "STOP_ID": 312101968,
   "LNG": 127.139261,
   "BRT_SUBID": "0",
   "ROUTE_ID": 305000970,
   "STOP_NAME": "비봉종점",
   "SERVICE_ID": 31967,
   "NODE_ID": 312101968,
   "STOP_ORD": 46,
   "LAT": 35.995154
  }
 ]
}