{
 "fetched_at": "2026-05-26T13:11:08+09:00",
 "stdid": 305001161,
 "resultList": [
  {
   "ROUTE_NAME": "501",
   "ROUTE_ORD": 1,
   "STOP_ID": 306101406,
   "LNG": 127.15812863,
   "BRT_SUBID": "A",
   "ROUTE_ID": 305001161,
   "STOP_NAME": "초포삼거리",
   "SERVICE_ID": 31405,
   "NODE_ID": 306101406,
   "STOP_ORD": 1,
   "LAT": 35.87126792
  },
  {
   "ROUTE_NAME": "501",
   "ROUTE_ORD": 2,
   "STOP_ID": 306101375,
   "LNG": 127.160048,
   "BRT_SUBID": "A",
   "ROUTE_ID": 305001161,
   "STOP_NAME": "배미실새터",
   "SERVICE_ID": 31374,
   "NODE_ID": 306101375,
   "STOP_ORD": 2,
   "LAT": 35.867997
  },
  {
   "ROUTE_NAME": "501",
   "ROUTE_ORD": 3,
   "STOP_ID": 306101335,
   "LNG": 127.16027593,
   "BRT_SUBID": "A",
   "ROUTE_ID": 305001161,
   "STOP_NAME": "전북자동차학원",
   "SERVICE_ID": 31334,
   "NODE_ID": 306101335,
   "STOP_ORD": 3,
   "LAT": 35.86564054
  },
  {
   "ROUTE_NAME": "501",
   "ROUTE_ORD": 4,
   "STOP_ID": 306101293,
   "LNG": 127.15972862,
   "BRT_SUBID": "A",
   "ROUTE_ID": 305001161,
   "STOP_NAME": "호성중",
   "SERVICE_ID": 31292,
   "NODE_ID": 306101293,
   "STOP_ORD": 4,
   "LAT": 35.86262591
  },
  {
   "ROUTE_NAME": "501",
   "ROUTE_ORD": 5,
   "STOP_ID": 306101252,
   "LNG": 127.158203,
   "BRT_SUBID": "A",
   "ROUTE_ID": 305001161,
   "STOP_NAME": "기린원",
   "SERVICE_ID": 31251,
   "NODE_ID": 306101252,
   "STOP_ORD": 5,
   "LAT": 35.858764
  },
  {
   "ROUTE_NAME": "501",
   "ROUTE_ORD": 6,
   "STOP_ID": 306101193,
   "LNG": 127.15760015,
   "BRT_SUBID": "A",
   "ROUTE_ID": 305001161,
   "STOP_NAME": "기린중",
   "SERVICE_ID": 31192,
   "NODE_ID": 306101193,
   "STOP_ORD": 6,
   "LAT": 35.85455441
  },
  {
   "ROUTE_NAME": "501",
   "ROUTE_ORD": 7,
   "STOP_ID": 306101110,
   "LNG": 127.1588352,
   "BRT_SUBID": "A",
   "ROUTE_ID": 305001161,
   "STOP_NAME": "전주역첫마중길",
   "SERVICE_ID": 31109,
   "NODE_ID": 306101110,
   "STOP_ORD": 7,
   "LAT": 35.8488499
  },
  {
   "ROUTE_NAME": "501",
   "ROUTE_ORD": 8,
   "STOP_ID": 306101092,
   "LNG": 127.155193,
   "BRT_SUBID": "A",
   "ROUTE_ID": 305001161,
   "STOP_NAME": "덕진보건소.한국전기안전공사전북본부",
   "SERVICE_ID": 31091,
   "NODE_ID": 306101092,
   "STOP_ORD": 8,
   "LAT": 35.847489
  },
  {
   "ROUTE_NAME": "501",
   "ROUTE_ORD": 9,
   "STOP_ID": 306101080,
   "LNG": 127.15287844,
   "BRT_SUBID": "A",
   "ROUTE_ID": 305001161,
   "STOP_NAME": "명주골네거리.대자인병원",
   "SERVICE_ID": 31079,
   "NODE_ID": 306101080,
   "STOP_ORD": 9,
   "LAT": 35.84548171
  },
  {
   "ROUTE_NAME": "501",
   "ROUTE_ORD": 10,
   "STOP_ID": 306101019,
   "LNG": 127.15489706,
   "BRT_SUBID": "A",
   "ROUTE_ID": 305001161,
   "STOP_NAME": "북일초교",
   "SERVICE_ID": 31018,
   "NODE_ID": 306101019,
   "STOP_ORD": 10,
   "LAT": 35.84067342
  },
  {
   "ROUTE_NAME": "501",
   "ROUTE_ORD": 11,
   "STOP_ID": 306100972,
   "LNG": 127.15536026,
   "BRT_SUBID": "A",
   "ROUTE_ID": 305001161,
   "STOP_NAME": "안골",
   "SERVICE_ID": 30972,
   "NODE_ID": 306100972,
   "STOP_ORD": 11,
   "LAT": 35.83675952
  },
  {
   "ROUTE_NAME": "501",
   "ROUTE_ORD": 12,
   "STOP_ID": 306100965,
   "LNG": 127.15116098,
   "BRT_SUBID": "A",
   "ROUTE_ID": 305001161,
   "STOP_NAME": "인후휴먼시아아파트",
   "SERVICE_ID": 30965,
   "NODE_ID": 306100965,
   "STOP_ORD": 12,
   "LAT": 35.83641443
  },
  {
   "ROUTE_NAME": "501",
   "ROUTE_ORD": 13,
   "STOP_ID": 306100943,
   "LNG": 127.14759274,
   "BRT_SUBID": "A",
   "ROUTE_ID": 305001161,
   "STOP_NAME": "전주생명과학고등학교",
   "SERVICE_ID": 30943,
   "NODE_ID": 306100943,
   "STOP_ORD": 13,
   "LAT": 35.83506423
  },
  {
   "ROUTE_NAME": "501",
   "ROUTE_ORD": 14,
   "STOP_ID": 306100898,
   "LNG": 127.14490334,
   "BRT_SUBID": "A",
   "ROUTE_ID": 305001161,
   "STOP_NAME": "모래내시장",
   "SERVICE_ID": 30898,
   "NODE_ID": 306100898,
   "STOP_ORD": 14,
   "LAT": 35.83301705
  },
  {
   "ROUTE_NAME": "501",
   "ROUTE_ORD": 15,
   "STOP_ID": 306100827,
   "LNG": 127.14283256,
   "BRT_SUBID": "A",
   "ROUTE_ID": 305001161,
   "STOP_NAME": "기린대로현대병원",
   "SERVICE_ID": 30827,
   "NODE_ID": 306100827,
   "STOP_ORD": 15,
   "LAT": 35.82894399
  },
  {
   "ROUTE_NAME": "501",
   "ROUTE_ORD": 16,
   "STOP_ID": 306100781,
   "LNG": 127.1465455,
   "BRT_SUBID": "A",
   "ROUTE_ID": 305001161,
   "STOP_NAME": "대우빌딩",
   "SERVICE_ID": 30781,
   "NODE_ID": 306100781,
   "STOP_ORD": 16,
   "LAT": 35.82578923
  },
  {
   "ROUTE_NAME": "501",
   "ROUTE_ORD": 17,
   "STOP_ID": 306100731,
   "LNG": 127.14967928,
   "BRT_SUBID": "A",
   "ROUTE_ID": 305001161,
   "STOP_NAME": "전주시청.노송동시외버스정류소",
   "SERVICE_ID": 30731,
   "NODE_ID": 306100731,
   "STOP_ORD": 17,
   "LAT": 35.82307474
  },
  {
   "ROUTE_NAME": "501",
   "ROUTE_ORD": 18,
   "STOP_ID": 305100703,
   "LNG": 127.15228,
   "BRT_SUBID": "A",
   "ROUTE_ID": 305001161,
   "STOP_NAME": "기린대로 병무청",
   "SERVICE_ID": 30703,
   "NODE_ID": 305100703,
   "STOP_ORD": 18,
   "LAT": 35.82096
  },
  {
   "ROUTE_NAME": "501",
   "ROUTE_ORD": 19,
   "STOP_ID": 305100681,
   "LNG": 127.15058311,
   "BRT_SUBID": "A",
   "ROUTE_ID": 305001161,
   "STOP_NAME": "동부시장",
   "SERVICE_ID": 30681,
   "NODE_ID": 305100681,
   "STOP_ORD": 19,
   "LAT": 35.81983521
  },
  {
   "ROUTE_NAME": "501",
   "ROUTE_ORD": 20,
   "STOP_ID": 305100645,
   "LNG": 127.147313,
   "BRT_SUBID": "A",
   "ROUTE_ID": 305001161,
   "STOP_NAME": "전북예술회관",
   "SERVICE_ID": 30645,
   "NODE_ID": 305100645,
   "STOP_ORD": 20,
   "LAT": 35.817028
  },
  {
   "ROUTE_NAME": "501",
   "ROUTE_ORD": 21,
   "STOP_ID": 305100601,
   "LNG": 127.14816867,
   "BRT_SUBID": "A",
   "ROUTE_ID": 305001161,
   "STOP_NAME": "전동성당.한옥마을",
   "SERVICE_ID": 30601,
   "NODE_ID": 305100601,
   "STOP_ORD": 21,
   "LAT": 35.81459568
  },
  {
   "ROUTE_NAME": "501",
   "ROUTE_ORD": 22,
   "STOP_ID": 305100573,
   "LNG": 127.1488857,
   "BRT_SUBID": "A",
   "ROUTE_ID": 305001161,
   "STOP_NAME": "남부시장",
   "SERVICE_ID": 30573,
   "NODE_ID": 305100573,
   "STOP_ORD": 22,
   "LAT": 35.81273721
  },
  {
   "ROUTE_NAME": "501",
   "ROUTE_ORD": 23,
   "STOP_ID": 305100555,
   "LNG": 127.147254,
   "BRT_SUBID": "A",
   "ROUTE_ID": 305001161,
   "STOP_NAME": "완산도서관.완산벙커",
   "SERVICE_ID": 30555,
   "NODE_ID": 305100555,
   "STOP_ORD": 23,
   "LAT": 35.811073
  },
  {
   "ROUTE_NAME": "501",
   "ROUTE_ORD": 24,
   "STOP_ID": 305100568,
   "LNG": 127.13903665,
   "BRT_SUBID": "A",
   "ROUTE_ID": 305001161,
   "STOP_NAME": "완산동시외버스정류소",
   "SERVICE_ID": 30568,
   "NODE_ID": 305100568,
   "STOP_ORD": 24,
   "LAT": 35.81225757
  },
  {
   "ROUTE_NAME": "501",
   "ROUTE_ORD": 25,
   "STOP_ID": 305100538,
   "LNG": 127.135618,
   "BRT_SUBID": "A",
   "ROUTE_ID": 305001161,
   "STOP_NAME": "용머리고개.완산동주민센터",
   "SERVICE_ID": 30538,
   "NODE_ID": 305100538,
   "STOP_ORD": 25,
   "LAT": 35.808837
  },
  {
   "ROUTE_NAME": "501",
   "ROUTE_ORD": 26,
   "STOP_ID": 305032700,
   "LNG": 127.135087,
   "BRT_SUBID": "A",
   "ROUTE_ID": 305001161,
   "STOP_NAME": "전주시니어클럽",
   "SERVICE_ID": 36634,
   "NODE_ID": 305032700,
   "STOP_ORD": 26,
   "LAT": 35.804081
  },
  {
   "ROUTE_NAME": "501",
   "ROUTE_ORD": 27,
   "STOP_ID": 305100392,
   "LNG": 127.130098,
   "BRT_SUBID": "A",
   "ROUTE_ID": 305001161,
   "STOP_NAME": "삼천신일아파트",
   "SERVICE_ID": 30392,
   "NODE_ID": 305100392,
   "STOP_ORD": 27,
   "LAT": 35.797718
  },
  {
   "ROUTE_NAME": "501",
   "ROUTE_ORD": 28,
   "STOP_ID": 305100362,
   "LNG": 127.13218022,
   "BRT_SUBID": "A",
   "ROUTE_ID": 305001161,
   "STOP_NAME": "평화코오롱아파트",
   "SERVICE_ID": 30362,
   "NODE_ID": 305100362,
   "STOP_ORD": 28,
   "LAT": 35.7944849
  },
  {
   "ROUTE_NAME": "501",
   "ROUTE_ORD": 29,
   "STOP_ID": 305100330,
   "LNG": 127.13127818,
   "BRT_SUBID": "A",
   "ROUTE_ID": 305001161,
   "STOP_NAME": "주공4단지.꽃밭정이아파트",
   "SERVICE_ID": 30330,
   "NODE_ID": 305100330,
   "STOP_ORD": 29,
   "LAT": 35.79083606
  },
  {
   "ROUTE_NAME": "501",
   "ROUTE_ORD": 30,
   "STOP_ID": 305100315,
   "LNG": 127.130503,
   "BRT_SUBID": "A",
   "ROUTE_ID": 305001161,
   "STOP_NAME": "평화삼성강남아파트",
   "SERVICE_ID": 30315,
   "NODE_ID": 305100315,
   "STOP_ORD": 30,
   "LAT": 35.78842983
  },
  {
   "ROUTE_NAME": "501",
   "ROUTE_ORD": 31,
   "STOP_ID": 305100292,
   "LNG": 127.129911,
   "BRT_SUBID": "A",
   "ROUTE_ID": 305001161,
   "STOP_NAME": "평화골드클래스.그린1차아파트",
   "SERVICE_ID": 30292,
   "NODE_ID": 305100292,
   "STOP_ORD": 31,
   "LAT": 35.784079
  },
  {
   "ROUTE_NAME": "501",
   "ROUTE_ORD": 32,
   "STOP_ID": 305100280,
   "LNG": 127.129315,
   "BRT_SUBID": "A",
   "ROUTE_ID": 305001161,
   "STOP_NAME": "전주교도소",
   "SERVICE_ID": 30280,
   "NODE_ID": 305100280,
   "STOP_ORD": 32,
   "LAT": 35.779692
  },
  {
   "ROUTE_NAME": "501",
   "ROUTE_ORD": 33,
   "STOP_ID": 305132107,
   "LNG": 127.12733296,
   "BRT_SUBID": "A",
   "ROUTE_ID": 305001161,
   "STOP_NAME": "문정마을",
   "SERVICE_ID": 32107,
   "NODE_ID": 305132107,
   "STOP_ORD": 33,
   "LAT": 35.77799535
  },
  {
   "ROUTE_NAME": "501",
   "ROUTE_ORD": 34,
   "STOP_ID": 305132104,
   "LNG": 127.12225419,
   "BRT_SUBID": "A",
   "ROUTE_ID": 305001161,
   "STOP_NAME": "평화동종점",
   "SERVICE_ID": 32104,
   "NODE_ID": 305132104,
   "STOP_ORD": 34,
   "LAT": 35.77817471
  }
 ]
}