{
 "fetched_at": "2026-05-26T13:11:06+09:00",
 "stdid": 305000418,
 "resultList": [
  {
   "ROUTE_NAME": "51",
   "ROUTE_ORD": 1,
   "STOP_ID": 312101938,
   "LNG": 127.20581534,
   "BRT_SUBID": "0",
   "ROUTE_ID": 305000418,
   "STOP_NAME": "고산터미널",
   "SERVICE_ID": 31937,
   "NODE_ID": 312101938,
   "STOP_ORD": 1,
   "LAT": 35.97519123
  },
  {
   "ROUTE_NAME": "51",
   "ROUTE_ORD": 2,
   "STOP_ID": 312132241,
   "LNG": 127.20494746,
   "BRT_SUBID": "0",
   "ROUTE_ID": 305000418,
   "STOP_NAME": "고산농협",
   "SERVICE_ID": 32241,
   "NODE_ID": 312132241,
   "STOP_ORD": 2,
   "LAT": 35.97549192
  },
  {
   "ROUTE_NAME": "51",
   "ROUTE_ORD": 3,
   "STOP_ID": 312101944,
   "LNG": 127.20114092,
   "BRT_SUBID": "0",
   "ROUTE_ID": 305000418,
   "STOP_NAME": "고산고입구",
   "SERVICE_ID": 31943,
   "NODE_ID": 312101944,
   "STOP_ORD": 3,
   "LAT": 35.97611364
  },
  {
   "ROUTE_NAME": "51",
   "ROUTE_ORD": 4,
   "STOP_ID": 312101946,
   "LNG": 127.19620383,
   "BRT_SUBID": "0",
   "ROUTE_ID": 305000418,
   "STOP_NAME": "서봉마을",
   "SERVICE_ID": 31945,
   "NODE_ID": 312101946,
   "STOP_ORD": 4,
   "LAT": 35.97702633
  },
  {
   "ROUTE_NAME": "51",
   "ROUTE_ORD": 5,
   "STOP_ID": 312101940,
   "LNG": 127.19215702,
   "BRT_SUBID": "0",
   "ROUTE_ID": 305000418,
   "STOP_NAME": "원산마을",
   "SERVICE_ID": 31939,
   "NODE_ID": 312101940,
   "STOP_ORD": 5,
   "LAT": 35.97555817
  },
  {
   "ROUTE_NAME": "51",
   "ROUTE_ORD": 6,
   "STOP_ID": 312101931,
   "LNG": 127.18596777,
   "BRT_SUBID": "0",
   "ROUTE_ID": 305000418,
   "STOP_NAME": "율곡리",
   "SERVICE_ID": 31930,
   "NODE_ID": 312101931,
   "STOP_ORD": 6,
   "LAT": 35.97251846
  },
  {
   "ROUTE_NAME": "51",
   "ROUTE_ORD": 7,
   "STOP_ID": 312101923,
   "LNG": 127.18230666,
   "BRT_SUBID": "0",
   "ROUTE_ID": 305000418,
   "STOP_NAME": "어우리",
   "SERVICE_ID": 31922,
   "NODE_ID": 312101923,
   "STOP_ORD": 7,
   "LAT": 35.96945522
  },
  {
   "ROUTE_NAME": "51",
   "ROUTE_ORD": 8,
   "STOP_ID": 312132237,
   "LNG": 127.1816669,
   "BRT_SUBID": "0",
   "ROUTE_ID": 305000418,
   "STOP_NAME": "어우가름재",
   "SERVICE_ID": 32237,
   "NODE_ID": 312132237,
   "STOP_ORD": 8,
   "LAT": 35.9673548
  },
  {
   "ROUTE_NAME": "51",
   "ROUTE_ORD": 9,
   "STOP_ID": 312132239,
   "LNG": 127.18015228,
   "BRT_SUBID": "0",
   "ROUTE_ID": 305000418,
   "STOP_NAME": "봉곡",
   "SERVICE_ID": 32239,
   "NODE_ID": 312132239,
   "STOP_ORD": 9,
   "LAT": 35.96372128
  },
  {
   "ROUTE_NAME": "51",
   "ROUTE_ORD": 10,
   "STOP_ID": 312101903,
   "LNG": 127.18059075,
   "BRT_SUBID": "0",
   "ROUTE_ID": 305000418,
   "STOP_NAME": "고산신기마을",
   "SERVICE_ID": 31902,
   "NODE_ID": 312101903,
   "STOP_ORD": 10,
   "LAT": 35.96095614
  },
  {
   "ROUTE_NAME": "51",
   "ROUTE_ORD": 11,
   "STOP_ID": 312101890,
   "LNG": 127.18146221,
   "BRT_SUBID": "0",
   "ROUTE_ID": 305000418,
   "STOP_NAME": "신덕마을",
   "SERVICE_ID": 31889,
   "NODE_ID": 312101890,
   "STOP_ORD": 11,
   "LAT": 35.95646969
  },
  {
   "ROUTE_NAME": "51",
   "ROUTE_ORD": 12,
   "STOP_ID": 312101872,
   "LNG": 127.18031412,
   "BRT_SUBID": "0",
   "ROUTE_ID": 305000418,
   "STOP_NAME": "율소리",
   "SERVICE_ID": 31871,
   "NODE_ID": 312101872,
   "STOP_ORD": 12,
   "LAT": 35.95222414
  },
  {
   "ROUTE_NAME": "51",
   "ROUTE_ORD": 13,
   "STOP_ID": 312101850,
   "LNG": 127.17231039,
   "BRT_SUBID": "0",
   "ROUTE_ID": 305000418,
   "STOP_NAME": "학다리마을",
   "SERVICE_ID": 31849,
   "NODE_ID": 312101850,
   "STOP_ORD": 13,
   "LAT": 35.94395661
  },
  {
   "ROUTE_NAME": "51",
   "ROUTE_ORD": 14,
   "STOP_ID": 312101818,
   "LNG": 127.17362441,
   "BRT_SUBID": "0",
   "ROUTE_ID": 305000418,
   "STOP_NAME": "완주국민체육센터",
   "SERVICE_ID": 31817,
   "NODE_ID": 312101818,
   "STOP_ORD": 14,
   "LAT": 35.93745423
  },
  {
   "ROUTE_NAME": "51",
   "ROUTE_ORD": 15,
   "STOP_ID": 312101802,
   "LNG": 127.17291833,
   "BRT_SUBID": "0",
   "ROUTE_ID": 305000418,
   "STOP_NAME": "용진대영아파트",
   "SERVICE_ID": 31801,
   "NODE_ID": 312101802,
   "STOP_ORD": 15,
   "LAT": 35.93394059
  },
  {
   "ROUTE_NAME": "51",
   "ROUTE_ORD": 16,
   "STOP_ID": 305032549,
   "LNG": 127.1724836,
   "BRT_SUBID": "0",
   "ROUTE_ID": 305000418,
   "STOP_NAME": "용복마을",
   "SERVICE_ID": 36483,
   "NODE_ID": 305032549,
   "STOP_ORD": 16,
   "LAT": 35.9275584
  },
  {
   "ROUTE_NAME": "51",
   "ROUTE_ORD": 17,
   "STOP_ID": 305032385,
   "LNG": 127.17179718,
   "BRT_SUBID": "0",
   "ROUTE_ID": 305000418,
   "STOP_NAME": "용진원주아파트",
   "SERVICE_ID": 36319,
   "NODE_ID": 305032385,
   "STOP_ORD": 17,
   "LAT": 35.92514495
  },
  {
   "ROUTE_NAME": "51",
   "ROUTE_ORD": 18,
   "STOP_ID": 305032805,
   "LNG": 127.163905,
   "BRT_SUBID": "0",
   "ROUTE_ID": 305000418,
   "STOP_NAME": "봉동회차지",
   "SERVICE_ID": 36739,
   "NODE_ID": 305032805,
   "STOP_ORD": 18,
   "LAT": 35.92499
  },
  {
   "ROUTE_NAME": "51",
   "ROUTE_ORD": 19,
   "STOP_ID": 312101764,
   "LNG": 127.16395544,
   "BRT_SUBID": "0",
   "ROUTE_ID": 305000418,
   "STOP_NAME": "낙평리",
   "SERVICE_ID": 31763,
   "NODE_ID": 312101764,
   "STOP_ORD": 19,
   "LAT": 35.92685216
  },
  {
   "ROUTE_NAME": "51",
   "ROUTE_ORD": 20,
   "STOP_ID": 312101782,
   "LNG": 127.16123509,
   "BRT_SUBID": "0",
   "ROUTE_ID": 305000418,
   "STOP_NAME": "봉동주공아파트",
   "SERVICE_ID": 31781,
   "NODE_ID": 312101782,
   "STOP_ORD": 20,
   "LAT": 35.92952914
  },
  {
   "ROUTE_NAME": "51",
   "ROUTE_ORD": 21,
   "STOP_ID": 312101785,
   "LNG": 127.16304531,
   "BRT_SUBID": "0",
   "ROUTE_ID": 305000418,
   "STOP_NAME": "낙평네거리",
   "SERVICE_ID": 31784,
   "NODE_ID": 312101785,
   "STOP_ORD": 21,
   "LAT": 35.93063009
  },
  {
   "ROUTE_NAME": "51",
   "ROUTE_ORD": 22,
   "STOP_ID": 312101798,
   "LNG": 127.16778609,
   "BRT_SUBID": "0",
   "ROUTE_ID": 305000418,
   "STOP_NAME": "영광맨션",
   "SERVICE_ID": 31797,
   "NODE_ID": 312101798,
   "STOP_ORD": 22,
   "LAT": 35.93304094
  },
  {
   "ROUTE_NAME": "51",
   "ROUTE_ORD": 23,
   "STOP_ID": 312101819,
   "LNG": 127.16833496,
   "BRT_SUBID": "0",
   "ROUTE_ID": 305000418,
   "STOP_NAME": "봉동전통시장.동창햇살창조센터",
   "SERVICE_ID": 31818,
   "NODE_ID": 312101819,
   "STOP_ORD": 23,
   "LAT": 35.9384139
  },
  {
   "ROUTE_NAME": "51",
   "ROUTE_ORD": 24,
   "STOP_ID": 312101828,
   "LNG": 127.16729171,
   "BRT_SUBID": "0",
   "ROUTE_ID": 305000418,
   "STOP_NAME": "봉동농협",
   "SERVICE_ID": 31827,
   "NODE_ID": 312101828,
   "STOP_ORD": 24,
   "LAT": 35.93914303
  },
  {
   "ROUTE_NAME": "51",
   "ROUTE_ORD": 25,
   "STOP_ID": 312101817,
   "LNG": 127.16218734,
   "BRT_SUBID": "0",
   "ROUTE_ID": 305000418,
   "STOP_NAME": "구봉동읍사무소",
   "SERVICE_ID": 31816,
   "NODE_ID": 312101817,
   "STOP_ORD": 25,
   "LAT": 35.93688778
  },
  {
   "ROUTE_NAME": "51",
   "ROUTE_ORD": 26,
   "STOP_ID": 312101815,
   "LNG": 127.1598458,
   "BRT_SUBID": "0",
   "ROUTE_ID": 305000418,
   "STOP_NAME": "완주중",
   "SERVICE_ID": 31814,
   "NODE_ID": 312101815,
   "STOP_ORD": 26,
   "LAT": 35.9357287
  },
  {
   "ROUTE_NAME": "51",
   "ROUTE_ORD": 27,
   "STOP_ID": 312101808,
   "LNG": 127.15571603,
   "BRT_SUBID": "0",
   "ROUTE_ID": 305000418,
   "STOP_NAME": "봉동신기마을",
   "SERVICE_ID": 31807,
   "NODE_ID": 312101808,
   "STOP_ORD": 27,
   "LAT": 35.93495534
  },
  {
   "ROUTE_NAME": "51",
   "ROUTE_ORD": 28,
   "STOP_ID": 312101803,
   "LNG": 127.15152093,
   "BRT_SUBID": "0",
   "ROUTE_ID": 305000418,
   "STOP_NAME": "신중리",
   "SERVICE_ID": 31802,
   "NODE_ID": 312101803,
   "STOP_ORD": 28,
   "LAT": 35.93421416
  },
  {
   "ROUTE_NAME": "51",
   "ROUTE_ORD": 29,
   "STOP_ID": 312101789,
   "LNG": 127.14378914,
   "BRT_SUBID": "0",
   "ROUTE_ID": 305000418,
   "STOP_NAME": "배을마을입구",
   "SERVICE_ID": 31788,
   "NODE_ID": 312101789,
   "STOP_ORD": 29,
   "LAT": 35.93137801
  },
  {
   "ROUTE_NAME": "51",
   "ROUTE_ORD": 30,
   "STOP_ID": 312101784,
   "LNG": 127.1397644,
   "BRT_SUBID": "0",
   "ROUTE_ID": 305000418,
   "STOP_NAME": "상구미리",
   "SERVICE_ID": 31783,
   "NODE_ID": 312101784,
   "STOP_ORD": 30,
   "LAT": 35.92997783
  },
  {
   "ROUTE_NAME": "51",
   "ROUTE_ORD": 31,
   "STOP_ID": 312101780,
   "LNG": 127.13557909,
   "BRT_SUBID": "0",
   "ROUTE_ID": 305000418,
   "STOP_NAME": "하구미리",
   "SERVICE_ID": 31779,
   "NODE_ID": 312101780,
   "STOP_ORD": 31,
   "LAT": 35.92884068
  },
  {
   "ROUTE_NAME": "51",
   "ROUTE_ORD": 32,
   "STOP_ID": 312101765,
   "LNG": 127.1268368,
   "BRT_SUBID": "0",
   "ROUTE_ID": 305000418,
   "STOP_NAME": "삼봉로.구.청완초교",
   "SERVICE_ID": 31764,
   "NODE_ID": 312101765,
   "STOP_ORD": 32,
   "LAT": 35.9271394
  },
  {
   "ROUTE_NAME": "51",
   "ROUTE_ORD": 33,
   "STOP_ID": 312101772,
   "LNG": 127.1253209,
   "BRT_SUBID": "0",
   "ROUTE_ID": 305000418,
   "STOP_NAME": "과학로.구.청완초교",
   "SERVICE_ID": 31771,
   "NODE_ID": 312101772,
   "STOP_ORD": 33,
   "LAT": 35.9289018
  },
  {
   "ROUTE_NAME": "51",
   "ROUTE_ORD": 34,
   "STOP_ID": 312101795,
   "LNG": 127.12539617,
   "BRT_SUBID": "0",
   "ROUTE_ID": 305000418,
   "STOP_NAME": "원수계리",
   "SERVICE_ID": 31794,
   "NODE_ID": 312101795,
   "STOP_ORD": 34,
   "LAT": 35.93270207
  },
  {
   "ROUTE_NAME": "51",
   "ROUTE_ORD": 35,
   "STOP_ID": 312101826,
   "LNG": 127.12563217,
   "BRT_SUBID": "0",
   "ROUTE_ID": 305000418,
   "STOP_NAME": "금강고려화학",
   "SERVICE_ID": 31825,
   "NODE_ID": 312101826,
   "STOP_ORD": 35,
   "LAT": 35.93881728
  },
  {
   "ROUTE_NAME": "51",
   "ROUTE_ORD": 36,
   "STOP_ID": 312101843,
   "LNG": 127.12741092,
   "BRT_SUBID": "0",
   "ROUTE_ID": 305000418,
   "STOP_NAME": "중앙공원",
   "SERVICE_ID": 31842,
   "NODE_ID": 312101843,
   "STOP_ORD": 36,
   "LAT": 35.94370728
  },
  {
   "ROUTE_NAME": "51",
   "ROUTE_ORD": 37,
   "STOP_ID": 305032478,
   "LNG": 127.1256453,
   "BRT_SUBID": "0",
   "ROUTE_ID": 305000418,
   "STOP_NAME": "배매산",
   "SERVICE_ID": 36412,
   "NODE_ID": 305032478,
   "STOP_ORD": 37,
   "LAT": 35.9508351
  },
  {
   "ROUTE_NAME": "51",
   "ROUTE_ORD": 38,
   "STOP_ID": 305032380,
   "LNG": 127.1255444,
   "BRT_SUBID": "0",
   "ROUTE_ID": 305000418,
   "STOP_NAME": "데크항공사거리",
   "SERVICE_ID": 36314,
   "NODE_ID": 305032380,
   "STOP_ORD": 38,
   "LAT": 35.95485309
  },
  {
   "ROUTE_NAME": "51",
   "ROUTE_ORD": 39,
   "STOP_ID": 305032300,
   "LNG": 127.1258239,
   "BRT_SUBID": "0",
   "ROUTE_ID": 305000418,
   "STOP_NAME": "새완주병원",
   "SERVICE_ID": 32300,
   "NODE_ID": 305032300,
   "STOP_ORD": 39,
   "LAT": 35.9576391
  },
  {
   "ROUTE_NAME": "51",
   "ROUTE_ORD": 40,
   "STOP_ID": 305032488,
   "LNG": 127.126515,
   "BRT_SUBID": "0",
   "ROUTE_ID": 305000418,
   "STOP_NAME": "둔산코아루1차아파트",
   "SERVICE_ID": 36422,
   "NODE_ID": 305032488,
   "STOP_ORD": 40,
   "LAT": 35.9618481
  },
  {
   "ROUTE_NAME": "51",
   "ROUTE_ORD": 41,
   "STOP_ID": 312101914,
   "LNG": 127.122735,
   "BRT_SUBID": "0",
   "ROUTE_ID": 305000418,
   "STOP_NAME": "둔산코아루2차아파트",
   "SERVICE_ID": 31913,
   "NODE_ID": 312101914,
   "STOP_ORD": 41,
   "LAT": 35.96226927
  }
 ]
}