{
 "fetched_at": "2026-05-26T13:11:08+09:00",
 "stdid": 305001165,
 "resultList": [
  {
   "ROUTE_NAME": "550",
   "ROUTE_ORD": 1,
   "STOP_ID": 306101347,
   "LNG": 127.14731266,
   "BRT_SUBID": "A",
   "ROUTE_ID": 305001165,
   "STOP_NAME": "호성진흥3단지",
   "SERVICE_ID": 31346,
   "NODE_ID": 306101347,
   "STOP_ORD": 1,
   "LAT": 35.86634247
  },
  {
   "ROUTE_NAME": "550",
   "ROUTE_ORD": 2,
   "STOP_ID": 306101322,
   "LNG": 127.14890823,
   "BRT_SUBID": "A",
   "ROUTE_ID": 305001165,
   "STOP_NAME": "호성진흥더블파크",
   "SERVICE_ID": 31321,
   "NODE_ID": 306101322,
   "STOP_ORD": 2,
   "LAT": 35.86463135
  },
  {
   "ROUTE_NAME": "550",
   "ROUTE_ORD": 3,
   "STOP_ID": 306101294,
   "LNG": 127.150719,
   "BRT_SUBID": "A",
   "ROUTE_ID": 305001165,
   "STOP_NAME": "전주출입국외국인사무소",
   "SERVICE_ID": 31293,
   "NODE_ID": 306101294,
   "STOP_ORD": 3,
   "LAT": 35.862876
  },
  {
   "ROUTE_NAME": "550",
   "ROUTE_ORD": 4,
   "STOP_ID": 306101264,
   "LNG": 127.153766,
   "BRT_SUBID": "A",
   "ROUTE_ID": 305001165,
   "STOP_NAME": "호성동아아파트",
   "SERVICE_ID": 31263,
   "NODE_ID": 306101264,
   "STOP_ORD": 4,
   "LAT": 35.859731
  },
  {
   "ROUTE_NAME": "550",
   "ROUTE_ORD": 5,
   "STOP_ID": 306101245,
   "LNG": 127.1552294,
   "BRT_SUBID": "A",
   "ROUTE_ID": 305001165,
   "STOP_NAME": "호성동신아파트",
   "SERVICE_ID": 31244,
   "NODE_ID": 306101245,
   "STOP_ORD": 5,
   "LAT": 35.85815573
  },
  {
   "ROUTE_NAME": "550",
   "ROUTE_ORD": 6,
   "STOP_ID": 306101193,
   "LNG": 127.15760015,
   "BRT_SUBID": "A",
   "ROUTE_ID": 305001165,
   "STOP_NAME": "기린중",
   "SERVICE_ID": 31192,
   "NODE_ID": 306101193,
   "STOP_ORD": 6,
   "LAT": 35.85455441
  },
  {
   "ROUTE_NAME": "550",
   "ROUTE_ORD": 7,
   "STOP_ID": 306101110,
   "LNG": 127.1588352,
   "BRT_SUBID": "A",
   "ROUTE_ID": 305001165,
   "STOP_NAME": "전주역첫마중길",
   "SERVICE_ID": 31109,
   "NODE_ID": 306101110,
   "STOP_ORD": 7,
   "LAT": 35.8488499
  },
  {
   "ROUTE_NAME": "550",
   "ROUTE_ORD": 8,
   "STOP_ID": 306101092,
   "LNG": 127.155193,
   "BRT_SUBID": "A",
   "ROUTE_ID": 305001165,
   "STOP_NAME": "덕진보건소.한국전기안전공사전북본부",
   "SERVICE_ID": 31091,
   "NODE_ID": 306101092,
   "STOP_ORD": 8,
   "LAT": 35.847489
  },
  {
   "ROUTE_NAME": "550",
   "ROUTE_ORD": 9,
   "STOP_ID": 306101088,
   "LNG": 127.15111712,
   "BRT_SUBID": "A",
   "ROUTE_ID": 305001165,
   "STOP_NAME": "한국장애인고용공단전북지사",
   "SERVICE_ID": 31087,
   "NODE_ID": 306101088,
   "STOP_ORD": 9,
   "LAT": 35.84642572
  },
  {
   "ROUTE_NAME": "550",
   "ROUTE_ORD": 10,
   "STOP_ID": 305032375,
   "LNG": 127.147656,
   "BRT_SUBID": "A",
   "ROUTE_ID": 305001165,
   "STOP_NAME": "건지산이지움",
   "SERVICE_ID": 36309,
   "NODE_ID": 305032375,
   "STOP_ORD": 10,
   "LAT": 35.845354
  },
  {
   "ROUTE_NAME": "550",
   "ROUTE_ORD": 11,
   "STOP_ID": 306101070,
   "LNG": 127.14535014,
   "BRT_SUBID": "A",
   "ROUTE_ID": 305001165,
   "STOP_NAME": "전북대학병원입구",
   "SERVICE_ID": 31069,
   "NODE_ID": 306101070,
   "STOP_ORD": 11,
   "LAT": 35.84466416
  },
  {
   "ROUTE_NAME": "550",
   "ROUTE_ORD": 12,
   "STOP_ID": 306101079,
   "LNG": 127.1423653,
   "BRT_SUBID": "A",
   "ROUTE_ID": 305001165,
   "STOP_NAME": "전북대학병원내",
   "SERVICE_ID": 31078,
   "NODE_ID": 306101079,
   "STOP_ORD": 12,
   "LAT": 35.8457004
  },
  {
   "ROUTE_NAME": "550",
   "ROUTE_ORD": 13,
   "STOP_ID": 306101057,
   "LNG": 127.14108421,
   "BRT_SUBID": "A",
   "ROUTE_ID": 305001165,
   "STOP_NAME": "사대부고사거리",
   "SERVICE_ID": 31056,
   "NODE_ID": 306101057,
   "STOP_ORD": 13,
   "LAT": 35.84346261
  },
  {
   "ROUTE_NAME": "550",
   "ROUTE_ORD": 14,
   "STOP_ID": 306101027,
   "LNG": 127.133365,
   "BRT_SUBID": "A",
   "ROUTE_ID": 305001165,
   "STOP_NAME": "전북대정문.덕진소방서",
   "SERVICE_ID": 31026,
   "NODE_ID": 306101027,
   "STOP_ORD": 14,
   "LAT": 35.841088
  },
  {
   "ROUTE_NAME": "550",
   "ROUTE_ORD": 15,
   "STOP_ID": 306100993,
   "LNG": 127.13141174,
   "BRT_SUBID": "A",
   "ROUTE_ID": 305001165,
   "STOP_NAME": "고속터미널입구.금암동주민센터",
   "SERVICE_ID": 30992,
   "NODE_ID": 306100993,
   "STOP_ORD": 15,
   "LAT": 35.8379584
  },
  {
   "ROUTE_NAME": "550",
   "ROUTE_ORD": 16,
   "STOP_ID": 306100915,
   "LNG": 127.13647961,
   "BRT_SUBID": "A",
   "ROUTE_ID": 305001165,
   "STOP_NAME": "금암광장.청담한방병원",
   "SERVICE_ID": 30915,
   "NODE_ID": 306100915,
   "STOP_ORD": 16,
   "LAT": 35.83397242
  },
  {
   "ROUTE_NAME": "550",
   "ROUTE_ORD": 17,
   "STOP_ID": 306100851,
   "LNG": 127.139175,
   "BRT_SUBID": "A",
   "ROUTE_ID": 305001165,
   "STOP_NAME": "한국은행.전북청소년상담센터",
   "SERVICE_ID": 30851,
   "NODE_ID": 306100851,
   "STOP_ORD": 17,
   "LAT": 35.830433
  },
  {
   "ROUTE_NAME": "550",
   "ROUTE_ORD": 18,
   "STOP_ID": 306100743,
   "LNG": 127.14462905,
   "BRT_SUBID": "A",
   "ROUTE_ID": 305001165,
   "STOP_NAME": "중앙시장.중앙성당.방송대",
   "SERVICE_ID": 30743,
   "NODE_ID": 306100743,
   "STOP_ORD": 18,
   "LAT": 35.82397975
  },
  {
   "ROUTE_NAME": "550",
   "ROUTE_ORD": 19,
   "STOP_ID": 305100694,
   "LNG": 127.14596591,
   "BRT_SUBID": "A",
   "ROUTE_ID": 305001165,
   "STOP_NAME": "북문.영화의거리",
   "SERVICE_ID": 30694,
   "NODE_ID": 305100694,
   "STOP_ORD": 19,
   "LAT": 35.82067316
  },
  {
   "ROUTE_NAME": "550",
   "ROUTE_ORD": 20,
   "STOP_ID": 305100601,
   "LNG": 127.14816867,
   "BRT_SUBID": "A",
   "ROUTE_ID": 305001165,
   "STOP_NAME": "전동성당.한옥마을",
   "SERVICE_ID": 30601,
   "NODE_ID": 305100601,
   "STOP_ORD": 20,
   "LAT": 35.81459568
  },
  {
   "ROUTE_NAME": "550",
   "ROUTE_ORD": 21,
   "STOP_ID": 305100573,
   "LNG": 127.1488857,
   "BRT_SUBID": "A",
   "ROUTE_ID": 305001165,
   "STOP_NAME": "남부시장",
   "SERVICE_ID": 30573,
   "NODE_ID": 305100573,
   "STOP_ORD": 21,
   "LAT": 35.81273721
  },
  {
   "ROUTE_NAME": "550",
   "ROUTE_ORD": 22,
   "STOP_ID": 305032533,
   "LNG": 127.1495396,
   "BRT_SUBID": "A",
   "ROUTE_ID": 305001165,
   "STOP_NAME": "서학예술마을.전주교대입구",
   "SERVICE_ID": 36467,
   "NODE_ID": 305032533,
   "STOP_ORD": 22,
   "LAT": 35.8080187
  },
  {
   "ROUTE_NAME": "550",
   "ROUTE_ORD": 23,
   "STOP_ID": 305100511,
   "LNG": 127.14952214,
   "BRT_SUBID": "A",
   "ROUTE_ID": 305001165,
   "STOP_NAME": "공수내다리",
   "SERVICE_ID": 30511,
   "NODE_ID": 305100511,
   "STOP_ORD": 23,
   "LAT": 35.80600343
  },
  {
   "ROUTE_NAME": "550",
   "ROUTE_ORD": 24,
   "STOP_ID": 305100472,
   "LNG": 127.147892,
   "BRT_SUBID": "A",
   "ROUTE_ID": 305001165,
   "STOP_NAME": "서서학예그린아파트",
   "SERVICE_ID": 30472,
   "NODE_ID": 305100472,
   "STOP_ORD": 24,
   "LAT": 35.803159
  },
  {
   "ROUTE_NAME": "550",
   "ROUTE_ORD": 25,
   "STOP_ID": 305100453,
   "LNG": 127.14622023,
   "BRT_SUBID": "A",
   "ROUTE_ID": 305001165,
   "STOP_NAME": "서서학우정목련아파트",
   "SERVICE_ID": 30453,
   "NODE_ID": 305100453,
   "STOP_ORD": 25,
   "LAT": 35.80135462
  },
  {
   "ROUTE_NAME": "550",
   "ROUTE_ORD": 26,
   "STOP_ID": 305100434,
   "LNG": 127.143638,
   "BRT_SUBID": "A",
   "ROUTE_ID": 305001165,
   "STOP_NAME": "장승백이",
   "SERVICE_ID": 30434,
   "NODE_ID": 305100434,
   "STOP_ORD": 26,
   "LAT": 35.799783
  },
  {
   "ROUTE_NAME": "550",
   "ROUTE_ORD": 27,
   "STOP_ID": 305100423,
   "LNG": 127.14108794,
   "BRT_SUBID": "A",
   "ROUTE_ID": 305001165,
   "STOP_NAME": "평화주공1.2단지",
   "SERVICE_ID": 30423,
   "NODE_ID": 305100423,
   "STOP_ORD": 27,
   "LAT": 35.79883454
  },
  {
   "ROUTE_NAME": "550",
   "ROUTE_ORD": 28,
   "STOP_ID": 305100397,
   "LNG": 127.13737968,
   "BRT_SUBID": "A",
   "ROUTE_ID": 305001165,
   "STOP_NAME": "완산여고",
   "SERVICE_ID": 30397,
   "NODE_ID": 305100397,
   "STOP_ORD": 28,
   "LAT": 35.79746601
  },
  {
   "ROUTE_NAME": "550",
   "ROUTE_ORD": 29,
   "STOP_ID": 305100387,
   "LNG": 127.13461747,
   "BRT_SUBID": "A",
   "ROUTE_ID": 305001165,
   "STOP_NAME": "꽃밭정이네거리",
   "SERVICE_ID": 30387,
   "NODE_ID": 305100387,
   "STOP_ORD": 29,
   "LAT": 35.79650315
  },
  {
   "ROUTE_NAME": "550",
   "ROUTE_ORD": 30,
   "STOP_ID": 305100362,
   "LNG": 127.13218022,
   "BRT_SUBID": "A",
   "ROUTE_ID": 305001165,
   "STOP_NAME": "평화코오롱아파트",
   "SERVICE_ID": 30362,
   "NODE_ID": 305100362,
   "STOP_ORD": 30,
   "LAT": 35.7944849
  },
  {
   "ROUTE_NAME": "550",
   "ROUTE_ORD": 31,
   "STOP_ID": 305100330,
   "LNG": 127.13127818,
   "BRT_SUBID": "A",
   "ROUTE_ID": 305001165,
   "STOP_NAME": "주공4단지.꽃밭정이아파트",
   "SERVICE_ID": 30330,
   "NODE_ID": 305100330,
   "STOP_ORD": 31,
   "LAT": 35.79083606
  },
  {
   "ROUTE_NAME": "550",
   "ROUTE_ORD": 32,
   "STOP_ID": 305100315,
   "LNG": 127.130503,
   "BRT_SUBID": "A",
   "ROUTE_ID": 305001165,
   "STOP_NAME": "평화삼성강남아파트",
   "SERVICE_ID": 30315,
   "NODE_ID": 305100315,
   "STOP_ORD": 32,
   "LAT": 35.78842983
  },
  {
   "ROUTE_NAME": "550",
   "ROUTE_ORD": 33,
   "STOP_ID": 305100292,
   "LNG": 127.129911,
   "BRT_SUBID": "A",
   "ROUTE_ID": 305001165,
   "STOP_NAME": "평화골드클래스.그린1차아파트",
   "SERVICE_ID": 30292,
   "NODE_ID": 305100292,
   "STOP_ORD": 33,
   "LAT": 35.784079
  },
  {
   "ROUTE_NAME": "550",
   "ROUTE_ORD": 34,
   "STOP_ID": 305100280,
   "LNG": 127.129315,
   "BRT_SUBID": "A",
   "ROUTE_ID": 305001165,
   "STOP_NAME": "전주교도소",
   "SERVICE_ID": 30280,
   "NODE_ID": 305100280,
   "STOP_ORD": 34,
   "LAT": 35.779692
  },
  {
   "ROUTE_NAME": "550",
   "ROUTE_ORD": 35,
   "STOP_ID": 305132107,
   "LNG": 127.12733296,
   "BRT_SUBID": "A",
   "ROUTE_ID": 305001165,
   "STOP_NAME": "문정마을",
   "SERVICE_ID": 32107,
   "NODE_ID": 305132107,
   "STOP_ORD": 35,
   "LAT": 35.77799535
  },
  {
   "ROUTE_NAME": "550",
   "ROUTE_ORD": 36,
   "STOP_ID": 305132104,
   "LNG": 127.12225419,
   "BRT_SUBID": "A",
   "ROUTE_ID": 305001165,
   "STOP_NAME": "평화동종점",
   "SERVICE_ID": 32104,
   "NODE_ID": 305132104,
   "STOP_ORD": 36,
   "LAT": 35.77817471
  }
 ]
}