{
 "fetched_at": "2026-05-26T13:11:08+09:00",
 "stdid": 305001157,
 "resultList": [
  {
   "ROUTE_NAME": "500",
   "ROUTE_ORD": 1,
   "STOP_ID": 305032805,
   "LNG": 127.163905,
   "BRT_SUBID": "0",
   "ROUTE_ID": 305001157,
   "STOP_NAME": "봉동회차지",
   "SERVICE_ID": 36739,
   "NODE_ID": 305032805,
   "STOP_ORD": 1,
   "LAT": 35.92499
  },
  {
   "ROUTE_NAME": "500",
   "ROUTE_ORD": 2,
   "STOP_ID": 312101764,
   "LNG": 127.16395544,
   "BRT_SUBID": "0",
   "ROUTE_ID": 305001157,
   "STOP_NAME": "낙평리",
   "SERVICE_ID": 31763,
   "NODE_ID": 312101764,
   "STOP_ORD": 2,
   "LAT": 35.92685216
  },
  {
   "ROUTE_NAME": "500",
   "ROUTE_ORD": 3,
   "STOP_ID": 312101782,
   "LNG": 127.16123509,
   "BRT_SUBID": "0",
   "ROUTE_ID": 305001157,
   "STOP_NAME": "봉동주공아파트",
   "SERVICE_ID": 31781,
   "NODE_ID": 312101782,
   "STOP_ORD": 3,
   "LAT": 35.92952914
  },
  {
   "ROUTE_NAME": "500",
   "ROUTE_ORD": 4,
   "STOP_ID": 305032848,
   "LNG": 127.15709,
   "BRT_SUBID": "0",
   "ROUTE_ID": 305001157,
   "STOP_NAME": "봉동신기마을",
   "SERVICE_ID": 36782,
   "NODE_ID": 305032848,
   "STOP_ORD": 4,
   "LAT": 35.934845
  },
  {
   "ROUTE_NAME": "500",
   "ROUTE_ORD": 5,
   "STOP_ID": 312101814,
   "LNG": 127.1599571,
   "BRT_SUBID": "0",
   "ROUTE_ID": 305001157,
   "STOP_NAME": "완주중",
   "SERVICE_ID": 31813,
   "NODE_ID": 312101814,
   "STOP_ORD": 5,
   "LAT": 35.9356299
  },
  {
   "ROUTE_NAME": "500",
   "ROUTE_ORD": 6,
   "STOP_ID": 312101816,
   "LNG": 127.16169754,
   "BRT_SUBID": "0",
   "ROUTE_ID": 305001157,
   "STOP_NAME": "구봉동읍사무소",
   "SERVICE_ID": 31815,
   "NODE_ID": 312101816,
   "STOP_ORD": 6,
   "LAT": 35.93646965
  },
  {
   "ROUTE_NAME": "500",
   "ROUTE_ORD": 7,
   "STOP_ID": 312101825,
   "LNG": 127.16668166,
   "BRT_SUBID": "0",
   "ROUTE_ID": 305001157,
   "STOP_NAME": "봉동농협",
   "SERVICE_ID": 31824,
   "NODE_ID": 312101825,
   "STOP_ORD": 7,
   "LAT": 35.93872548
  },
  {
   "ROUTE_NAME": "500",
   "ROUTE_ORD": 8,
   "STOP_ID": 312101820,
   "LNG": 127.16815446,
   "BRT_SUBID": "0",
   "ROUTE_ID": 305001157,
   "STOP_NAME": "봉동전통시장",
   "SERVICE_ID": 31819,
   "NODE_ID": 312101820,
   "STOP_ORD": 8,
   "LAT": 35.93783158
  },
  {
   "ROUTE_NAME": "500",
   "ROUTE_ORD": 9,
   "STOP_ID": 312101799,
   "LNG": 127.16778609,
   "BRT_SUBID": "0",
   "ROUTE_ID": 305001157,
   "STOP_NAME": "영광맨션",
   "SERVICE_ID": 31798,
   "NODE_ID": 312101799,
   "STOP_ORD": 9,
   "LAT": 35.93329315
  },
  {
   "ROUTE_NAME": "500",
   "ROUTE_ORD": 10,
   "STOP_ID": 312101786,
   "LNG": 127.16315713,
   "BRT_SUBID": "0",
   "ROUTE_ID": 305001157,
   "STOP_NAME": "낙평네거리",
   "SERVICE_ID": 31785,
   "NODE_ID": 312101786,
   "STOP_ORD": 10,
   "LAT": 35.93104006
  },
  {
   "ROUTE_NAME": "500",
   "ROUTE_ORD": 11,
   "STOP_ID": 312101781,
   "LNG": 127.16083438,
   "BRT_SUBID": "0",
   "ROUTE_ID": 305001157,
   "STOP_NAME": "봉동주공아파트",
   "SERVICE_ID": 31780,
   "NODE_ID": 312101781,
   "STOP_ORD": 11,
   "LAT": 35.92929823
  },
  {
   "ROUTE_NAME": "500",
   "ROUTE_ORD": 12,
   "STOP_ID": 312101774,
   "LNG": 127.16234212,
   "BRT_SUBID": "0",
   "ROUTE_ID": 305001157,
   "STOP_NAME": "낙평리",
   "SERVICE_ID": 31773,
   "NODE_ID": 312101774,
   "STOP_ORD": 12,
   "LAT": 35.92787194
  },
  {
   "ROUTE_NAME": "500",
   "ROUTE_ORD": 13,
   "STOP_ID": 312101752,
   "LNG": 127.1653387,
   "BRT_SUBID": "0",
   "ROUTE_ID": 305001157,
   "STOP_NAME": "마그내다리",
   "SERVICE_ID": 31751,
   "NODE_ID": 312101752,
   "STOP_ORD": 13,
   "LAT": 35.9250368
  },
  {
   "ROUTE_NAME": "500",
   "ROUTE_ORD": 14,
   "STOP_ID": 312101728,
   "LNG": 127.16752884,
   "BRT_SUBID": "0",
   "ROUTE_ID": 305001157,
   "STOP_NAME": "하이트맥주",
   "SERVICE_ID": 31727,
   "NODE_ID": 312101728,
   "STOP_ORD": 14,
   "LAT": 35.92041312
  },
  {
   "ROUTE_NAME": "500",
   "ROUTE_ORD": 15,
   "STOP_ID": 312101642,
   "LNG": 127.17092453,
   "BRT_SUBID": "0",
   "ROUTE_ID": 305001157,
   "STOP_NAME": "지암마을",
   "SERVICE_ID": 31641,
   "NODE_ID": 312101642,
   "STOP_ORD": 15,
   "LAT": 35.90451218
  },
  {
   "ROUTE_NAME": "500",
   "ROUTE_ORD": 16,
   "STOP_ID": 305032742,
   "LNG": 127.1673034,
   "BRT_SUBID": "0",
   "ROUTE_ID": 305001157,
   "STOP_NAME": "운곡모아미래도1차아파트",
   "SERVICE_ID": 36676,
   "NODE_ID": 305032742,
   "STOP_ORD": 16,
   "LAT": 35.90378502
  },
  {
   "ROUTE_NAME": "500",
   "ROUTE_ORD": 17,
   "STOP_ID": 312102030,
   "LNG": 127.16176944,
   "BRT_SUBID": "0",
   "ROUTE_ID": 305001157,
   "STOP_NAME": "완주군청",
   "SERVICE_ID": 32030,
   "NODE_ID": 312102030,
   "STOP_ORD": 17,
   "LAT": 35.90364372
  },
  {
   "ROUTE_NAME": "500",
   "ROUTE_ORD": 18,
   "STOP_ID": 312102031,
   "LNG": 127.15812971,
   "BRT_SUBID": "0",
   "ROUTE_ID": 305001157,
   "STOP_NAME": "운곡마을",
   "SERVICE_ID": 32031,
   "NODE_ID": 312102031,
   "STOP_ORD": 18,
   "LAT": 35.90422213
  },
  {
   "ROUTE_NAME": "500",
   "ROUTE_ORD": 19,
   "STOP_ID": 312101622,
   "LNG": 127.1560683,
   "BRT_SUBID": "0",
   "ROUTE_ID": 305001157,
   "STOP_NAME": "벽성대",
   "SERVICE_ID": 31621,
   "NODE_ID": 312101622,
   "STOP_ORD": 19,
   "LAT": 35.89917939
  },
  {
   "ROUTE_NAME": "500",
   "ROUTE_ORD": 20,
   "STOP_ID": 312101562,
   "LNG": 127.15617155,
   "BRT_SUBID": "0",
   "ROUTE_ID": 305001157,
   "STOP_NAME": "상운리입구",
   "SERVICE_ID": 31561,
   "NODE_ID": 312101562,
   "STOP_ORD": 20,
   "LAT": 35.88886314
  },
  {
   "ROUTE_NAME": "500",
   "ROUTE_ORD": 21,
   "STOP_ID": 312101532,
   "LNG": 127.15601684,
   "BRT_SUBID": "0",
   "ROUTE_ID": 305001157,
   "STOP_NAME": "운교마을",
   "SERVICE_ID": 31531,
   "NODE_ID": 312101532,
   "STOP_ORD": 21,
   "LAT": 35.88433656
  },
  {
   "ROUTE_NAME": "500",
   "ROUTE_ORD": 22,
   "STOP_ID": 312101507,
   "LNG": 127.15566101,
   "BRT_SUBID": "0",
   "ROUTE_ID": 305001157,
   "STOP_NAME": "용진",
   "SERVICE_ID": 31506,
   "NODE_ID": 312101507,
   "STOP_ORD": 22,
   "LAT": 35.88140249
  },
  {
   "ROUTE_NAME": "500",
   "ROUTE_ORD": 23,
   "STOP_ID": 306101435,
   "LNG": 127.151808,
   "BRT_SUBID": "0",
   "ROUTE_ID": 305001157,
   "STOP_NAME": "완주로고당마을",
   "SERVICE_ID": 31434,
   "NODE_ID": 306101435,
   "STOP_ORD": 23,
   "LAT": 35.874687
  },
  {
   "ROUTE_NAME": "500",
   "ROUTE_ORD": 24,
   "STOP_ID": 306101347,
   "LNG": 127.14731266,
   "BRT_SUBID": "0",
   "ROUTE_ID": 305001157,
   "STOP_NAME": "호성진흥3단지",
   "SERVICE_ID": 31346,
   "NODE_ID": 306101347,
   "STOP_ORD": 24,
   "LAT": 35.86634247
  },
  {
   "ROUTE_NAME": "500",
   "ROUTE_ORD": 25,
   "STOP_ID": 306101322,
   "LNG": 127.14890823,
   "BRT_SUBID": "0",
   "ROUTE_ID": 305001157,
   "STOP_NAME": "호성진흥더블파크",
   "SERVICE_ID": 31321,
   "NODE_ID": 306101322,
   "STOP_ORD": 25,
   "LAT": 35.86463135
  },
  {
   "ROUTE_NAME": "500",
   "ROUTE_ORD": 26,
   "STOP_ID": 306101294,
   "LNG": 127.150719,
   "BRT_SUBID": "0",
   "ROUTE_ID": 305001157,
   "STOP_NAME": "전주출입국외국인사무소",
   "SERVICE_ID": 31293,
   "NODE_ID": 306101294,
   "STOP_ORD": 26,
   "LAT": 35.862876
  },
  {
   "ROUTE_NAME": "500",
   "ROUTE_ORD": 27,
   "STOP_ID": 306101264,
   "LNG": 127.153766,
   "BRT_SUBID": "0",
   "ROUTE_ID": 305001157,
   "STOP_NAME": "호성동아아파트",
   "SERVICE_ID": 31263,
   "NODE_ID": 306101264,
   "STOP_ORD": 27,
   "LAT": 35.859731
  },
  {
   "ROUTE_NAME": "500",
   "ROUTE_ORD": 28,
   "STOP_ID": 306101239,
   "LNG": 127.15195548,
   "BRT_SUBID": "0",
   "ROUTE_ID": 305001157,
   "STOP_NAME": "호성주공",
   "SERVICE_ID": 31238,
   "NODE_ID": 306101239,
   "STOP_ORD": 28,
   "LAT": 35.85784878
  },
  {
   "ROUTE_NAME": "500",
   "ROUTE_ORD": 29,
   "STOP_ID": 306101209,
   "LNG": 127.15102965,
   "BRT_SUBID": "0",
   "ROUTE_ID": 305001157,
   "STOP_NAME": "호성동엘지동아아파트",
   "SERVICE_ID": 31208,
   "NODE_ID": 306101209,
   "STOP_ORD": 29,
   "LAT": 35.85527563
  },
  {
   "ROUTE_NAME": "500",
   "ROUTE_ORD": 30,
   "STOP_ID": 306101165,
   "LNG": 127.15363551,
   "BRT_SUBID": "0",
   "ROUTE_ID": 305001157,
   "STOP_NAME": "호성로 우아중",
   "SERVICE_ID": 31164,
   "NODE_ID": 306101165,
   "STOP_ORD": 30,
   "LAT": 35.85333135
  },
  {
   "ROUTE_NAME": "500",
   "ROUTE_ORD": 31,
   "STOP_ID": 306101099,
   "LNG": 127.15183148,
   "BRT_SUBID": "0",
   "ROUTE_ID": 305001157,
   "STOP_NAME": "청년회의소",
   "SERVICE_ID": 31098,
   "NODE_ID": 306101099,
   "STOP_ORD": 31,
   "LAT": 35.84867803
  },
  {
   "ROUTE_NAME": "500",
   "ROUTE_ORD": 32,
   "STOP_ID": 306101080,
   "LNG": 127.15287844,
   "BRT_SUBID": "0",
   "ROUTE_ID": 305001157,
   "STOP_NAME": "명주골네거리.대자인병원",
   "SERVICE_ID": 31079,
   "NODE_ID": 306101080,
   "STOP_ORD": 32,
   "LAT": 35.84548171
  },
  {
   "ROUTE_NAME": "500",
   "ROUTE_ORD": 33,
   "STOP_ID": 306101019,
   "LNG": 127.15489706,
   "BRT_SUBID": "0",
   "ROUTE_ID": 305001157,
   "STOP_NAME": "북일초교",
   "SERVICE_ID": 31018,
   "NODE_ID": 306101019,
   "STOP_ORD": 33,
   "LAT": 35.84067342
  },
  {
   "ROUTE_NAME": "500",
   "ROUTE_ORD": 34,
   "STOP_ID": 306100972,
   "LNG": 127.15536026,
   "BRT_SUBID": "0",
   "ROUTE_ID": 305001157,
   "STOP_NAME": "안골",
   "SERVICE_ID": 30972,
   "NODE_ID": 306100972,
   "STOP_ORD": 34,
   "LAT": 35.83675952
  },
  {
   "ROUTE_NAME": "500",
   "ROUTE_ORD": 35,
   "STOP_ID": 306100965,
   "LNG": 127.15116098,
   "BRT_SUBID": "0",
   "ROUTE_ID": 305001157,
   "STOP_NAME": "인후휴먼시아아파트",
   "SERVICE_ID": 30965,
   "NODE_ID": 306100965,
   "STOP_ORD": 35,
   "LAT": 35.83641443
  },
  {
   "ROUTE_NAME": "500",
   "ROUTE_ORD": 36,
   "STOP_ID": 306100943,
   "LNG": 127.14759274,
   "BRT_SUBID": "0",
   "ROUTE_ID": 305001157,
   "STOP_NAME": "전주생명과학고등학교",
   "SERVICE_ID": 30943,
   "NODE_ID": 306100943,
   "STOP_ORD": 36,
   "LAT": 35.83506423
  },
  {
   "ROUTE_NAME": "500",
   "ROUTE_ORD": 37,
   "STOP_ID": 306100898,
   "LNG": 127.14490334,
   "BRT_SUBID": "0",
   "ROUTE_ID": 305001157,
   "STOP_NAME": "모래내시장",
   "SERVICE_ID": 30898,
   "NODE_ID": 306100898,
   "STOP_ORD": 37,
   "LAT": 35.83301705
  },
  {
   "ROUTE_NAME": "500",
   "ROUTE_ORD": 38,
   "STOP_ID": 306100879,
   "LNG": 127.14373151,
   "BRT_SUBID": "0",
   "ROUTE_ID": 305001157,
   "STOP_NAME": "모래내",
   "SERVICE_ID": 30879,
   "NODE_ID": 306100879,
   "STOP_ORD": 38,
   "LAT": 35.83203886
  },
  {
   "ROUTE_NAME": "500",
   "ROUTE_ORD": 39,
   "STOP_ID": 306100817,
   "LNG": 127.1419199,
   "BRT_SUBID": "0",
   "ROUTE_ID": 305001157,
   "STOP_NAME": "흥국생명",
   "SERVICE_ID": 30817,
   "NODE_ID": 306100817,
   "STOP_ORD": 39,
   "LAT": 35.82811986
  },
  {
   "ROUTE_NAME": "500",
   "ROUTE_ORD": 40,
   "STOP_ID": 306100743,
   "LNG": 127.14462905,
   "BRT_SUBID": "0",
   "ROUTE_ID": 305001157,
   "STOP_NAME": "중앙시장.중앙성당.방송대",
   "SERVICE_ID": 30743,
   "NODE_ID": 306100743,
   "STOP_ORD": 40,
   "LAT": 35.82397975
  },
  {
   "ROUTE_NAME": "500",
   "ROUTE_ORD": 41,
   "STOP_ID": 305100694,
   "LNG": 127.14596591,
   "BRT_SUBID": "0",
   "ROUTE_ID": 305001157,
   "STOP_NAME": "북문.영화의거리",
   "SERVICE_ID": 30694,
   "NODE_ID": 305100694,
   "STOP_ORD": 41,
   "LAT": 35.82067316
  },
  {
   "ROUTE_NAME": "500",
   "ROUTE_ORD": 42,
   "STOP_ID": 305100601,
   "LNG": 127.14816867,
   "BRT_SUBID": "0",
   "ROUTE_ID": 305001157,
   "STOP_NAME": "전동성당.한옥마을",
   "SERVICE_ID": 30601,
   "NODE_ID": 305100601,
   "STOP_ORD": 42,
   "LAT": 35.81459568
  },
  {
   "ROUTE_NAME": "500",
   "ROUTE_ORD": 43,
   "STOP_ID": 305100573,
   "LNG": 127.1488857,
   "BRT_SUBID": "0",
   "ROUTE_ID": 305001157,
   "STOP_NAME": "남부시장",
   "SERVICE_ID": 30573,
   "NODE_ID": 305100573,
   "STOP_ORD": 43,
   "LAT": 35.81273721
  },
  {
   "ROUTE_NAME": "500",
   "ROUTE_ORD": 44,
   "STOP_ID": 305032533,
   "LNG": 127.1495396,
   "BRT_SUBID": "0",
   "ROUTE_ID": 305001157,
   "STOP_NAME": "서학예술마을.전주교대입구",
   "SERVICE_ID": 36467,
   "NODE_ID": 305032533,
   "STOP_ORD": 44,
   "LAT": 35.8080187
  },
  {
   "ROUTE_NAME": "500",
   "ROUTE_ORD": 45,
   "STOP_ID": 305100511,
   "LNG": 127.14952214,
   "BRT_SUBID": "0",
   "ROUTE_ID": 305001157,
   "STOP_NAME": "공수내다리",
   "SERVICE_ID": 30511,
   "NODE_ID": 305100511,
   "STOP_ORD": 45,
   "LAT": 35.80600343
  },
  {
   "ROUTE_NAME": "500",
   "ROUTE_ORD": 46,
   "STOP_ID": 305100472,
   "LNG": 127.147892,
   "BRT_SUBID": "0",
   "ROUTE_ID": 305001157,
   "STOP_NAME": "서서학예그린아파트",
   "SERVICE_ID": 30472,
   "NODE_ID": 305100472,
   "STOP_ORD": 46,
   "LAT": 35.803159
  },
  {
   "ROUTE_NAME": "500",
   "ROUTE_ORD": 47,
   "STOP_ID": 305100453,
   "LNG": 127.14622023,
   "BRT_SUBID": "0",
   "ROUTE_ID": 305001157,
   "STOP_NAME": "서서학우정목련아파트",
   "SERVICE_ID": 30453,
   "NODE_ID": 305100453,
   "STOP_ORD": 47,
   "LAT": 35.80135462
  },
  {
   "ROUTE_NAME": "500",
   "ROUTE_ORD": 48,
   "STOP_ID": 305100434,
   "LNG": 127.143638,
   "BRT_SUBID": "0",
   "ROUTE_ID": 305001157,
   "STOP_NAME": "장승백이",
   "SERVICE_ID": 30434,
   "NODE_ID": 305100434,
   "STOP_ORD": 48,
   "LAT": 35.799783
  },
  {
   "ROUTE_NAME": "500",
   "ROUTE_ORD": 49,
   "STOP_ID": 305100423,
   "LNG": 127.14108794,
   "BRT_SUBID": "0",
   "ROUTE_ID": 305001157,
   "STOP_NAME": "평화주공1.2단지",
   "SERVICE_ID": 30423,
   "NODE_ID": 305100423,
   "STOP_ORD": 49,
   "LAT": 35.79883454
  },
  {
   "ROUTE_NAME": "500",
   "ROUTE_ORD": 50,
   "STOP_ID": 305100397,
   "LNG": 127.13737968,
   "BRT_SUBID": "0",
   "ROUTE_ID": 305001157,
   "STOP_NAME": "완산여고",
   "SERVICE_ID": 30397,
   "NODE_ID": 305100397,
   "STOP_ORD": 50,
   "LAT": 35.79746601
  },
  {
   "ROUTE_NAME": "500",
   "ROUTE_ORD": 51,
   "STOP_ID": 305100387,
   "LNG": 127.13461747,
   "BRT_SUBID": "0",
   "ROUTE_ID": 305001157,
   "STOP_NAME": "꽃밭정이네거리",
   "SERVICE_ID": 30387,
   "NODE_ID": 305100387,
   "STOP_ORD": 51,
   "LAT": 35.79650315
  },
  {
   "ROUTE_NAME": "500",
   "ROUTE_ORD": 52,
   "STOP_ID": 305100362,
   "LNG": 127.13218022,
   "BRT_SUBID": "0",
   "ROUTE_ID": 305001157,
   "STOP_NAME": "평화코오롱아파트",
   "SERVICE_ID": 30362,
   "NODE_ID": 305100362,
   "STOP_ORD": 52,
   "LAT": 35.7944849
  },
  {
   "ROUTE_NAME": "500",
   "ROUTE_ORD": 53,
   "STOP_ID": 305100330,
   "LNG": 127.13127818,
   "BRT_SUBID": "0",
   "ROUTE_ID": 305001157,
   "STOP_NAME": "주공4단지.꽃밭정이아파트",
   "SERVICE_ID": 30330,
   "NODE_ID": 305100330,
   "STOP_ORD": 53,
   "LAT": 35.79083606
  },
  {
   "ROUTE_NAME": "500",
   "ROUTE_ORD": 54,
   "STOP_ID": 305100315,
   "LNG": 127.130503,
   "BRT_SUBID": "0",
   "ROUTE_ID": 305001157,
   "STOP_NAME": "평화삼성강남아파트",
   "SERVICE_ID": 30315,
   "NODE_ID": 305100315,
   "STOP_ORD": 54,
   "LAT": 35.78842983
  },
  {
   "ROUTE_NAME": "500",
   "ROUTE_ORD": 55,
   "STOP_ID": 305100292,
   "LNG": 127.129911,
   "BRT_SUBID": "0",
   "ROUTE_ID": 305001157,
   "STOP_NAME": "평화골드클래스.그린1차아파트",
   "SERVICE_ID": 30292,
   "NODE_ID": 305100292,
   "STOP_ORD": 55,
   "LAT": 35.784079
  },
  {
   "ROUTE_NAME": "500",
   "ROUTE_ORD": 56,
   "STOP_ID": 305100280,
   "LNG": 127.129315,
   "BRT_SUBID": "0",
   "ROUTE_ID": 305001157,
   "STOP_NAME": "전주교도소",
   "SERVICE_ID": 30280,
   "NODE_ID": 305100280,
   "STOP_ORD": 56,
   "LAT": 35.779692
  },
  {
   "ROUTE_NAME": "500",
   "ROUTE_ORD": 57,
   "STOP_ID": 305132107,
   "LNG": 127.12733296,
   "BRT_SUBID": "0",
   "ROUTE_ID": 305001157,
   "STOP_NAME": "문정마을",
   "SERVICE_ID": 32107,
   "NODE_ID": 305132107,
   "STOP_ORD": 57,
   "LAT": 35.77799535
  },
  {
   "ROUTE_NAME": "500",
   "ROUTE_ORD": 58,
   "STOP_ID": 305132104,
   "LNG": 127.12225419,
   "BRT_SUBID": "0",
   "ROUTE_ID": 305001157,
   "STOP_NAME": "평화동종점",
   "SERVICE_ID": 32104,
   "NODE_ID": 305132104,
   "STOP_ORD": 58,
   "LAT": 35.77817471
  }
 ]
}