{
 "fetched_at": "2026-05-26T13:11:06+09:00",
 "stdid": 305000990,
 "resultList": [
  {
   "ROUTE_NAME": "58",
   "ROUTE_ORD": 1,
   "STOP_ID": 305032805,
   "LNG": 127.163905,
   "BRT_SUBID": "0",
   "ROUTE_ID": 305000990,
   "STOP_NAME": "봉동회차지",
   "SERVICE_ID": 36739,
   "NODE_ID": 305032805,
   "STOP_ORD": 1,
   "LAT": 35.92499
  },
  {
   "ROUTE_NAME": "58",
   "ROUTE_ORD": 2,
   "STOP_ID": 312101764,
   "LNG": 127.16395544,
   "BRT_SUBID": "0",
   "ROUTE_ID": 305000990,
   "STOP_NAME": "낙평리",
   "SERVICE_ID": 31763,
   "NODE_ID": 312101764,
   "STOP_ORD": 2,
   "LAT": 35.92685216
  },
  {
   "ROUTE_NAME": "58",
   "ROUTE_ORD": 3,
   "STOP_ID": 312101782,
   "LNG": 127.16123509,
   "BRT_SUBID": "0",
   "ROUTE_ID": 305000990,
   "STOP_NAME": "봉동주공아파트",
   "SERVICE_ID": 31781,
   "NODE_ID": 312101782,
   "STOP_ORD": 3,
   "LAT": 35.92952914
  },
  {
   "ROUTE_NAME": "58",
   "ROUTE_ORD": 4,
   "STOP_ID": 312101785,
   "LNG": 127.16304531,
   "BRT_SUBID": "0",
   "ROUTE_ID": 305000990,
   "STOP_NAME": "낙평네거리",
   "SERVICE_ID": 31784,
   "NODE_ID": 312101785,
   "STOP_ORD": 4,
   "LAT": 35.93063009
  },
  {
   "ROUTE_NAME": "58",
   "ROUTE_ORD": 5,
   "STOP_ID": 312101798,
   "LNG": 127.16778609,
   "BRT_SUBID": "0",
   "ROUTE_ID": 305000990,
   "STOP_NAME": "영광맨션",
   "SERVICE_ID": 31797,
   "NODE_ID": 312101798,
   "STOP_ORD": 5,
   "LAT": 35.93304094
  },
  {
   "ROUTE_NAME": "58",
   "ROUTE_ORD": 6,
   "STOP_ID": 312101819,
   "LNG": 127.16833496,
   "BRT_SUBID": "0",
   "ROUTE_ID": 305000990,
   "STOP_NAME": "봉동전통시장.동창햇살창조센터",
   "SERVICE_ID": 31818,
   "NODE_ID": 312101819,
   "STOP_ORD": 6,
   "LAT": 35.9384139
  },
  {
   "ROUTE_NAME": "58",
   "ROUTE_ORD": 7,
   "STOP_ID": 312101831,
   "LNG": 127.16746889,
   "BRT_SUBID": "0",
   "ROUTE_ID": 305000990,
   "STOP_NAME": "완주고봉동파출소",
   "SERVICE_ID": 31830,
   "NODE_ID": 312101831,
   "STOP_ORD": 7,
   "LAT": 35.93974878
  },
  {
   "ROUTE_NAME": "58",
   "ROUTE_ORD": 8,
   "STOP_ID": 312101839,
   "LNG": 127.16867406,
   "BRT_SUBID": "0",
   "ROUTE_ID": 305000990,
   "STOP_NAME": "봉동신진맨션아파트",
   "SERVICE_ID": 31838,
   "NODE_ID": 312101839,
   "STOP_ORD": 8,
   "LAT": 35.9419505
  },
  {
   "ROUTE_NAME": "58",
   "ROUTE_ORD": 9,
   "STOP_ID": 312101818,
   "LNG": 127.17362441,
   "BRT_SUBID": "0",
   "ROUTE_ID": 305000990,
   "STOP_NAME": "완주국민체육센터",
   "SERVICE_ID": 31817,
   "NODE_ID": 312101818,
   "STOP_ORD": 9,
   "LAT": 35.93745423
  },
  {
   "ROUTE_NAME": "58",
   "ROUTE_ORD": 10,
   "STOP_ID": 312101802,
   "LNG": 127.17291833,
   "BRT_SUBID": "0",
   "ROUTE_ID": 305000990,
   "STOP_NAME": "용진대영아파트",
   "SERVICE_ID": 31801,
   "NODE_ID": 312101802,
   "STOP_ORD": 10,
   "LAT": 35.93394059
  },
  {
   "ROUTE_NAME": "58",
   "ROUTE_ORD": 11,
   "STOP_ID": 305032549,
   "LNG": 127.1724836,
   "BRT_SUBID": "0",
   "ROUTE_ID": 305000990,
   "STOP_NAME": "용복마을",
   "SERVICE_ID": 36483,
   "NODE_ID": 305032549,
   "STOP_ORD": 11,
   "LAT": 35.9275584
  },
  {
   "ROUTE_NAME": "58",
   "ROUTE_ORD": 12,
   "STOP_ID": 305032385,
   "LNG": 127.17179718,
   "BRT_SUBID": "0",
   "ROUTE_ID": 305000990,
   "STOP_NAME": "용진원주아파트",
   "SERVICE_ID": 36319,
   "NODE_ID": 305032385,
   "STOP_ORD": 12,
   "LAT": 35.92514495
  },
  {
   "ROUTE_NAME": "58",
   "ROUTE_ORD": 13,
   "STOP_ID": 312101728,
   "LNG": 127.16752884,
   "BRT_SUBID": "0",
   "ROUTE_ID": 305000990,
   "STOP_NAME": "하이트맥주",
   "SERVICE_ID": 31727,
   "NODE_ID": 312101728,
   "STOP_ORD": 13,
   "LAT": 35.92041312
  },
  {
   "ROUTE_NAME": "58",
   "ROUTE_ORD": 14,
   "STOP_ID": 312101689,
   "LNG": 127.16194048,
   "BRT_SUBID": "0",
   "ROUTE_ID": 305000990,
   "STOP_NAME": "서당리",
   "SERVICE_ID": 31688,
   "NODE_ID": 312101689,
   "STOP_ORD": 14,
   "LAT": 35.91296292
  },
  {
   "ROUTE_NAME": "58",
   "ROUTE_ORD": 15,
   "STOP_ID": 312101662,
   "LNG": 127.15814036,
   "BRT_SUBID": "0",
   "ROUTE_ID": 305000990,
   "STOP_NAME": "구만리",
   "SERVICE_ID": 31661,
   "NODE_ID": 312101662,
   "STOP_ORD": 15,
   "LAT": 35.90907386
  },
  {
   "ROUTE_NAME": "58",
   "ROUTE_ORD": 16,
   "STOP_ID": 312102032,
   "LNG": 127.1575218,
   "BRT_SUBID": "0",
   "ROUTE_ID": 305000990,
   "STOP_NAME": "운곡마을",
   "SERVICE_ID": 32032,
   "NODE_ID": 312102032,
   "STOP_ORD": 16,
   "LAT": 35.90409168
  },
  {
   "ROUTE_NAME": "58",
   "ROUTE_ORD": 17,
   "STOP_ID": 312102033,
   "LNG": 127.16166086,
   "BRT_SUBID": "0",
   "ROUTE_ID": 305000990,
   "STOP_NAME": "완주군청",
   "SERVICE_ID": 32033,
   "NODE_ID": 312102033,
   "STOP_ORD": 17,
   "LAT": 35.90343566
  },
  {
   "ROUTE_NAME": "58",
   "ROUTE_ORD": 18,
   "STOP_ID": 305032743,
   "LNG": 127.16776842,
   "BRT_SUBID": "0",
   "ROUTE_ID": 305000990,
   "STOP_NAME": "운곡모아미래도2차아파트",
   "SERVICE_ID": 36677,
   "NODE_ID": 305032743,
   "STOP_ORD": 18,
   "LAT": 35.90367397
  },
  {
   "ROUTE_NAME": "58",
   "ROUTE_ORD": 19,
   "STOP_ID": 312101640,
   "LNG": 127.17098774,
   "BRT_SUBID": "0",
   "ROUTE_ID": 305000990,
   "STOP_NAME": "지암마을",
   "SERVICE_ID": 31639,
   "NODE_ID": 312101640,
   "STOP_ORD": 19,
   "LAT": 35.90428678
  },
  {
   "ROUTE_NAME": "58",
   "ROUTE_ORD": 20,
   "STOP_ID": 312101651,
   "LNG": 127.17894358,
   "BRT_SUBID": "0",
   "ROUTE_ID": 305000990,
   "STOP_NAME": "덕암마을",
   "SERVICE_ID": 31650,
   "NODE_ID": 312101651,
   "STOP_ORD": 20,
   "LAT": 35.90370641
  },
  {
   "ROUTE_NAME": "58",
   "ROUTE_ORD": 21,
   "STOP_ID": 312101636,
   "LNG": 127.18495453,
   "BRT_SUBID": "0",
   "ROUTE_ID": 305000990,
   "STOP_NAME": "신봉마을",
   "SERVICE_ID": 31635,
   "NODE_ID": 312101636,
   "STOP_ORD": 21,
   "LAT": 35.90342792
  },
  {
   "ROUTE_NAME": "58",
   "ROUTE_ORD": 22,
   "STOP_ID": 305032855,
   "LNG": 127.188323,
   "BRT_SUBID": "0",
   "ROUTE_ID": 305000990,
   "STOP_NAME": "신봉마을입구",
   "SERVICE_ID": 36789,
   "NODE_ID": 305032855,
   "STOP_ORD": 22,
   "LAT": 35.901911
  },
  {
   "ROUTE_NAME": "58",
   "ROUTE_ORD": 23,
   "STOP_ID": 312132041,
   "LNG": 127.19033737,
   "BRT_SUBID": "0",
   "ROUTE_ID": 305000990,
   "STOP_NAME": "신촌마을",
   "SERVICE_ID": 32041,
   "NODE_ID": 312132041,
   "STOP_ORD": 23,
   "LAT": 35.89802615
  },
  {
   "ROUTE_NAME": "58",
   "ROUTE_ORD": 24,
   "STOP_ID": 312101616,
   "LNG": 127.19142252,
   "BRT_SUBID": "0",
   "ROUTE_ID": 305000990,
   "STOP_NAME": "두억마을",
   "SERVICE_ID": 31615,
   "NODE_ID": 312101616,
   "STOP_ORD": 24,
   "LAT": 35.89601705
  },
  {
   "ROUTE_NAME": "58",
   "ROUTE_ORD": 25,
   "STOP_ID": 312101583,
   "LNG": 127.19373599,
   "BRT_SUBID": "0",
   "ROUTE_ID": 305000990,
   "STOP_NAME": "오천마을",
   "SERVICE_ID": 31582,
   "NODE_ID": 312101583,
   "STOP_ORD": 25,
   "LAT": 35.89104912
  },
  {
   "ROUTE_NAME": "58",
   "ROUTE_ORD": 26,
   "STOP_ID": 305032859,
   "LNG": 127.182616,
   "BRT_SUBID": "0",
   "ROUTE_ID": 305000990,
   "STOP_NAME": "간중초교 후문",
   "SERVICE_ID": 36793,
   "NODE_ID": 305032859,
   "STOP_ORD": 26,
   "LAT": 35.890423
  },
  {
   "ROUTE_NAME": "58",
   "ROUTE_ORD": 27,
   "STOP_ID": 312101577,
   "LNG": 127.17726432,
   "BRT_SUBID": "0",
   "ROUTE_ID": 305000990,
   "STOP_NAME": "도계마을",
   "SERVICE_ID": 31576,
   "NODE_ID": 312101577,
   "STOP_ORD": 27,
   "LAT": 35.89060297
  },
  {
   "ROUTE_NAME": "58",
   "ROUTE_ORD": 28,
   "STOP_ID": 305032740,
   "LNG": 127.17378602,
   "BRT_SUBID": "0",
   "ROUTE_ID": 305000990,
   "STOP_NAME": "도계마을입구",
   "SERVICE_ID": 36674,
   "NODE_ID": 305032740,
   "STOP_ORD": 28,
   "LAT": 35.89089923
  },
  {
   "ROUTE_NAME": "58",
   "ROUTE_ORD": 29,
   "STOP_ID": 312101571,
   "LNG": 127.16684993,
   "BRT_SUBID": "0",
   "ROUTE_ID": 305000990,
   "STOP_NAME": "시천마을",
   "SERVICE_ID": 31570,
   "NODE_ID": 312101571,
   "STOP_ORD": 29,
   "LAT": 35.8898492
  },
  {
   "ROUTE_NAME": "58",
   "ROUTE_ORD": 30,
   "STOP_ID": 312101568,
   "LNG": 127.16116236,
   "BRT_SUBID": "0",
   "ROUTE_ID": 305000990,
   "STOP_NAME": "봉서로 상운리",
   "SERVICE_ID": 31567,
   "NODE_ID": 312101568,
   "STOP_ORD": 30,
   "LAT": 35.88955118
  },
  {
   "ROUTE_NAME": "58",
   "ROUTE_ORD": 31,
   "STOP_ID": 305032455,
   "LNG": 127.157274,
   "BRT_SUBID": "0",
   "ROUTE_ID": 305000990,
   "STOP_NAME": "녹동마을.상운리입구",
   "SERVICE_ID": 36389,
   "NODE_ID": 305032455,
   "STOP_ORD": 31,
   "LAT": 35.888646
  },
  {
   "ROUTE_NAME": "58",
   "ROUTE_ORD": 32,
   "STOP_ID": 312101532,
   "LNG": 127.15601684,
   "BRT_SUBID": "0",
   "ROUTE_ID": 305000990,
   "STOP_NAME": "운교마을",
   "SERVICE_ID": 31531,
   "NODE_ID": 312101532,
   "STOP_ORD": 32,
   "LAT": 35.88433656
  },
  {
   "ROUTE_NAME": "58",
   "ROUTE_ORD": 33,
   "STOP_ID": 312101507,
   "LNG": 127.15566101,
   "BRT_SUBID": "0",
   "ROUTE_ID": 305000990,
   "STOP_NAME": "용진",
   "SERVICE_ID": 31506,
   "NODE_ID": 312101507,
   "STOP_ORD": 33,
   "LAT": 35.88140249
  },
  {
   "ROUTE_NAME": "58",
   "ROUTE_ORD": 34,
   "STOP_ID": 312032248,
   "LNG": 127.15396924,
   "BRT_SUBID": "0",
   "ROUTE_ID": 305000990,
   "STOP_NAME": "운교마을",
   "SERVICE_ID": 32248,
   "NODE_ID": 312032248,
   "STOP_ORD": 34,
   "LAT": 35.88415415
  },
  {
   "ROUTE_NAME": "58",
   "ROUTE_ORD": 35,
   "STOP_ID": 312101587,
   "LNG": 127.15001596,
   "BRT_SUBID": "0",
   "ROUTE_ID": 305000990,
   "STOP_NAME": "용두사",
   "SERVICE_ID": 31586,
   "NODE_ID": 312101587,
   "STOP_ORD": 35,
   "LAT": 35.89168873
  },
  {
   "ROUTE_NAME": "58",
   "ROUTE_ORD": 36,
   "STOP_ID": 312101615,
   "LNG": 127.14650314,
   "BRT_SUBID": "0",
   "ROUTE_ID": 305000990,
   "STOP_NAME": "신기",
   "SERVICE_ID": 31614,
   "NODE_ID": 312101615,
   "STOP_ORD": 36,
   "LAT": 35.89603923
  },
  {
   "ROUTE_NAME": "58",
   "ROUTE_ORD": 37,
   "STOP_ID": 312101620,
   "LNG": 127.1433986,
   "BRT_SUBID": "0",
   "ROUTE_ID": 305000990,
   "STOP_NAME": "서계마을",
   "SERVICE_ID": 31619,
   "NODE_ID": 312101620,
   "STOP_ORD": 37,
   "LAT": 35.89759204
  },
  {
   "ROUTE_NAME": "58",
   "ROUTE_ORD": 38,
   "STOP_ID": 312101643,
   "LNG": 127.13875992,
   "BRT_SUBID": "0",
   "ROUTE_ID": 305000990,
   "STOP_NAME": "터지내마을",
   "SERVICE_ID": 31642,
   "NODE_ID": 312101643,
   "STOP_ORD": 38,
   "LAT": 35.90524874
  }
 ]
}