{
 "fetched_at": "2026-05-26T13:11:06+09:00",
 "stdid": 305000971,
 "resultList": [
  {
   "ROUTE_NAME": "52",
   "ROUTE_ORD": 1,
   "STOP_ID": 312101969,
   "LNG": 127.139406,
   "BRT_SUBID": "0",
   "ROUTE_ID": 305000971,
   "STOP_NAME": "비봉종점",
   "SERVICE_ID": 31968,
   "NODE_ID": 312101969,
   "STOP_ORD": 1,
   "LAT": 35.995354
  },
  {
   "ROUTE_NAME": "52",
   "ROUTE_ORD": 2,
   "STOP_ID": 312032203,
   "LNG": 127.13793562,
   "BRT_SUBID": "0",
   "ROUTE_ID": 305000971,
   "STOP_NAME": "비봉파출소",
   "SERVICE_ID": 32203,
   "NODE_ID": 312032203,
   "STOP_ORD": 2,
   "LAT": 35.99660045
  },
  {
   "ROUTE_NAME": "52",
   "ROUTE_ORD": 3,
   "STOP_ID": 305032370,
   "LNG": 127.1303445,
   "BRT_SUBID": "0",
   "ROUTE_ID": 305000971,
   "STOP_NAME": "봉동오투그란데",
   "SERVICE_ID": 36304,
   "NODE_ID": 305032370,
   "STOP_ORD": 3,
   "LAT": 35.9951106
  },
  {
   "ROUTE_NAME": "52",
   "ROUTE_ORD": 4,
   "STOP_ID": 312101970,
   "LNG": 127.12764367,
   "BRT_SUBID": "0",
   "ROUTE_ID": 305000971,
   "STOP_NAME": "백제대",
   "SERVICE_ID": 31969,
   "NODE_ID": 312101970,
   "STOP_ORD": 4,
   "LAT": 35.99493719
  },
  {
   "ROUTE_NAME": "52",
   "ROUTE_ORD": 5,
   "STOP_ID": 312032195,
   "LNG": 127.12168314,
   "BRT_SUBID": "0",
   "ROUTE_ID": 305000971,
   "STOP_NAME": "백제대원룸단지",
   "SERVICE_ID": 32195,
   "NODE_ID": 312032195,
   "STOP_ORD": 5,
   "LAT": 35.99302858
  },
  {
   "ROUTE_NAME": "52",
   "ROUTE_ORD": 6,
   "STOP_ID": 312101966,
   "LNG": 127.1192442,
   "BRT_SUBID": "0",
   "ROUTE_ID": 305000971,
   "STOP_NAME": "신촌마을입구",
   "SERVICE_ID": 31965,
   "NODE_ID": 312101966,
   "STOP_ORD": 6,
   "LAT": 35.99276318
  },
  {
   "ROUTE_NAME": "52",
   "ROUTE_ORD": 7,
   "STOP_ID": 312101957,
   "LNG": 127.11778905,
   "BRT_SUBID": "0",
   "ROUTE_ID": 305000971,
   "STOP_NAME": "새터",
   "SERVICE_ID": 31956,
   "NODE_ID": 312101957,
   "STOP_ORD": 7,
   "LAT": 35.9887678
  },
  {
   "ROUTE_NAME": "52",
   "ROUTE_ORD": 8,
   "STOP_ID": 312032197,
   "LNG": 127.1167171,
   "BRT_SUBID": "0",
   "ROUTE_ID": 305000971,
   "STOP_NAME": "백제대입구",
   "SERVICE_ID": 32197,
   "NODE_ID": 312032197,
   "STOP_ORD": 8,
   "LAT": 35.98484455
  },
  {
   "ROUTE_NAME": "52",
   "ROUTE_ORD": 9,
   "STOP_ID": 312101952,
   "LNG": 127.11882197,
   "BRT_SUBID": "0",
   "ROUTE_ID": 305000971,
   "STOP_NAME": "무관마을",
   "SERVICE_ID": 31951,
   "NODE_ID": 312101952,
   "STOP_ORD": 9,
   "LAT": 35.98303944
  },
  {
   "ROUTE_NAME": "52",
   "ROUTE_ORD": 10,
   "STOP_ID": 312032198,
   "LNG": 127.12035677,
   "BRT_SUBID": "0",
   "ROUTE_ID": 305000971,
   "STOP_NAME": "만동",
   "SERVICE_ID": 32198,
   "NODE_ID": 312032198,
   "STOP_ORD": 10,
   "LAT": 35.98063526
  },
  {
   "ROUTE_NAME": "52",
   "ROUTE_ORD": 11,
   "STOP_ID": 312101948,
   "LNG": 127.1213501,
   "BRT_SUBID": "0",
   "ROUTE_ID": 305000971,
   "STOP_NAME": "옥동마을",
   "SERVICE_ID": 31947,
   "NODE_ID": 312101948,
   "STOP_ORD": 11,
   "LAT": 35.9772293
  },
  {
   "ROUTE_NAME": "52",
   "ROUTE_ORD": 12,
   "STOP_ID": 312101932,
   "LNG": 127.12599459,
   "BRT_SUBID": "0",
   "ROUTE_ID": 305000971,
   "STOP_NAME": "장구리",
   "SERVICE_ID": 31931,
   "NODE_ID": 312101932,
   "STOP_ORD": 12,
   "LAT": 35.97050218
  },
  {
   "ROUTE_NAME": "52",
   "ROUTE_ORD": 13,
   "STOP_ID": 312032805,
   "LNG": 127.1217364,
   "BRT_SUBID": "0",
   "ROUTE_ID": 305000971,
   "STOP_NAME": "대주코레스",
   "SERVICE_ID": 36275,
   "NODE_ID": 312032805,
   "STOP_ORD": 13,
   "LAT": 35.9657821
  },
  {
   "ROUTE_NAME": "52",
   "ROUTE_ORD": 14,
   "STOP_ID": 312032806,
   "LNG": 127.1219443,
   "BRT_SUBID": "0",
   "ROUTE_ID": 305000971,
   "STOP_NAME": "모아엘가아파트",
   "SERVICE_ID": 36276,
   "NODE_ID": 312032806,
   "STOP_ORD": 14,
   "LAT": 35.9628886
  },
  {
   "ROUTE_NAME": "52",
   "ROUTE_ORD": 15,
   "STOP_ID": 312101911,
   "LNG": 127.12275813,
   "BRT_SUBID": "0",
   "ROUTE_ID": 305000971,
   "STOP_NAME": "둔산코아루2차아파트",
   "SERVICE_ID": 31910,
   "NODE_ID": 312101911,
   "STOP_ORD": 15,
   "LAT": 35.96190743
  },
  {
   "ROUTE_NAME": "52",
   "ROUTE_ORD": 16,
   "STOP_ID": 312101906,
   "LNG": 127.12703871,
   "BRT_SUBID": "0",
   "ROUTE_ID": 305000971,
   "STOP_NAME": "둔산코아루1차아파트",
   "SERVICE_ID": 31905,
   "NODE_ID": 312101906,
   "STOP_ORD": 16,
   "LAT": 35.96138092
  },
  {
   "ROUTE_NAME": "52",
   "ROUTE_ORD": 17,
   "STOP_ID": 305032299,
   "LNG": 127.1253479,
   "BRT_SUBID": "0",
   "ROUTE_ID": 305000971,
   "STOP_NAME": "새완주병원",
   "SERVICE_ID": 32299,
   "NODE_ID": 305032299,
   "STOP_ORD": 17,
   "LAT": 35.9574618
  },
  {
   "ROUTE_NAME": "52",
   "ROUTE_ORD": 18,
   "STOP_ID": 305032379,
   "LNG": 127.1252638,
   "BRT_SUBID": "0",
   "ROUTE_ID": 305000971,
   "STOP_NAME": "데크항공사거리",
   "SERVICE_ID": 36313,
   "NODE_ID": 305032379,
   "STOP_ORD": 18,
   "LAT": 35.9541518
  },
  {
   "ROUTE_NAME": "52",
   "ROUTE_ORD": 19,
   "STOP_ID": 305032479,
   "LNG": 127.1252274,
   "BRT_SUBID": "0",
   "ROUTE_ID": 305000971,
   "STOP_NAME": "배매산",
   "SERVICE_ID": 36413,
   "NODE_ID": 305032479,
   "STOP_ORD": 19,
   "LAT": 35.95061083
  },
  {
   "ROUTE_NAME": "52",
   "ROUTE_ORD": 20,
   "STOP_ID": 312101844,
   "LNG": 127.12514126,
   "BRT_SUBID": "0",
   "ROUTE_ID": 305000971,
   "STOP_NAME": "중앙공원",
   "SERVICE_ID": 31843,
   "NODE_ID": 312101844,
   "STOP_ORD": 20,
   "LAT": 35.94334576
  },
  {
   "ROUTE_NAME": "52",
   "ROUTE_ORD": 21,
   "STOP_ID": 312101829,
   "LNG": 127.12513539,
   "BRT_SUBID": "0",
   "ROUTE_ID": 305000971,
   "STOP_NAME": "금강고려화학",
   "SERVICE_ID": 31828,
   "NODE_ID": 312101829,
   "STOP_ORD": 21,
   "LAT": 35.93950364
  },
  {
   "ROUTE_NAME": "52",
   "ROUTE_ORD": 22,
   "STOP_ID": 312101794,
   "LNG": 127.12515956,
   "BRT_SUBID": "0",
   "ROUTE_ID": 305000971,
   "STOP_NAME": "원수계리",
   "SERVICE_ID": 31793,
   "NODE_ID": 312101794,
   "STOP_ORD": 22,
   "LAT": 35.93268856
  },
  {
   "ROUTE_NAME": "52",
   "ROUTE_ORD": 23,
   "STOP_ID": 312101773,
   "LNG": 127.12499475,
   "BRT_SUBID": "0",
   "ROUTE_ID": 305000971,
   "STOP_NAME": "과학로.구.청완초교",
   "SERVICE_ID": 31772,
   "NODE_ID": 312101773,
   "STOP_ORD": 23,
   "LAT": 35.92790433
  },
  {
   "ROUTE_NAME": "52",
   "ROUTE_ORD": 24,
   "STOP_ID": 312101763,
   "LNG": 127.12566475,
   "BRT_SUBID": "0",
   "ROUTE_ID": 305000971,
   "STOP_NAME": "삼봉로.구.청완초교",
   "SERVICE_ID": 31762,
   "NODE_ID": 312101763,
   "STOP_ORD": 24,
   "LAT": 35.92678638
  },
  {
   "ROUTE_NAME": "52",
   "ROUTE_ORD": 25,
   "STOP_ID": 312101778,
   "LNG": 127.13572407,
   "BRT_SUBID": "0",
   "ROUTE_ID": 305000971,
   "STOP_NAME": "하구미리",
   "SERVICE_ID": 31777,
   "NODE_ID": 312101778,
   "STOP_ORD": 25,
   "LAT": 35.92857895
  },
  {
   "ROUTE_NAME": "52",
   "ROUTE_ORD": 26,
   "STOP_ID": 312101783,
   "LNG": 127.14009995,
   "BRT_SUBID": "0",
   "ROUTE_ID": 305000971,
   "STOP_NAME": "상구미리",
   "SERVICE_ID": 31782,
   "NODE_ID": 312101783,
   "STOP_ORD": 26,
   "LAT": 35.92979719
  },
  {
   "ROUTE_NAME": "52",
   "ROUTE_ORD": 27,
   "STOP_ID": 312101787,
   "LNG": 127.14408215,
   "BRT_SUBID": "0",
   "ROUTE_ID": 305000971,
   "STOP_NAME": "배을마을입구",
   "SERVICE_ID": 31786,
   "NODE_ID": 312101787,
   "STOP_ORD": 27,
   "LAT": 35.93120193
  },
  {
   "ROUTE_NAME": "52",
   "ROUTE_ORD": 28,
   "STOP_ID": 312101801,
   "LNG": 127.15166183,
   "BRT_SUBID": "0",
   "ROUTE_ID": 305000971,
   "STOP_NAME": "신중리",
   "SERVICE_ID": 31800,
   "NODE_ID": 312101801,
   "STOP_ORD": 28,
   "LAT": 35.93396888
  },
  {
   "ROUTE_NAME": "52",
   "ROUTE_ORD": 29,
   "STOP_ID": 312101806,
   "LNG": 127.15571629,
   "BRT_SUBID": "0",
   "ROUTE_ID": 305000971,
   "STOP_NAME": "봉동신기마을",
   "SERVICE_ID": 31805,
   "NODE_ID": 312101806,
   "STOP_ORD": 29,
   "LAT": 35.93479253
  },
  {
   "ROUTE_NAME": "52",
   "ROUTE_ORD": 30,
   "STOP_ID": 312101814,
   "LNG": 127.1599571,
   "BRT_SUBID": "0",
   "ROUTE_ID": 305000971,
   "STOP_NAME": "완주중",
   "SERVICE_ID": 31813,
   "NODE_ID": 312101814,
   "STOP_ORD": 30,
   "LAT": 35.9356299
  },
  {
   "ROUTE_NAME": "52",
   "ROUTE_ORD": 31,
   "STOP_ID": 312101816,
   "LNG": 127.16169754,
   "BRT_SUBID": "0",
   "ROUTE_ID": 305000971,
   "STOP_NAME": "구봉동읍사무소",
   "SERVICE_ID": 31815,
   "NODE_ID": 312101816,
   "STOP_ORD": 31,
   "LAT": 35.93646965
  },
  {
   "ROUTE_NAME": "52",
   "ROUTE_ORD": 32,
   "STOP_ID": 312101825,
   "LNG": 127.16668166,
   "BRT_SUBID": "0",
   "ROUTE_ID": 305000971,
   "STOP_NAME": "봉동농협",
   "SERVICE_ID": 31824,
   "NODE_ID": 312101825,
   "STOP_ORD": 32,
   "LAT": 35.93872548
  },
  {
   "ROUTE_NAME": "52",
   "ROUTE_ORD": 33,
   "STOP_ID": 312101820,
   "LNG": 127.16815446,
   "BRT_SUBID": "0",
   "ROUTE_ID": 305000971,
   "STOP_NAME": "봉동전통시장",
   "SERVICE_ID": 31819,
   "NODE_ID": 312101820,
   "STOP_ORD": 33,
   "LAT": 35.93783158
  },
  {
   "ROUTE_NAME": "52",
   "ROUTE_ORD": 34,
   "STOP_ID": 312101792,
   "LNG": 127.168542,
   "BRT_SUBID": "0",
   "ROUTE_ID": 305000971,
   "STOP_NAME": "보상마을",
   "SERVICE_ID": 31791,
   "NODE_ID": 312101792,
   "STOP_ORD": 34,
   "LAT": 35.9319952
  },
  {
   "ROUTE_NAME": "52",
   "ROUTE_ORD": 35,
   "STOP_ID": 312101768,
   "LNG": 127.16602905,
   "BRT_SUBID": "0",
   "ROUTE_ID": 305000971,
   "STOP_NAME": "완주경찰서",
   "SERVICE_ID": 31767,
   "NODE_ID": 312101768,
   "STOP_ORD": 35,
   "LAT": 35.92743643
  },
  {
   "ROUTE_NAME": "52",
   "ROUTE_ORD": 36,
   "STOP_ID": 312101752,
   "LNG": 127.1653387,
   "BRT_SUBID": "0",
   "ROUTE_ID": 305000971,
   "STOP_NAME": "마그내다리",
   "SERVICE_ID": 31751,
   "NODE_ID": 312101752,
   "STOP_ORD": 36,
   "LAT": 35.9250368
  },
  {
   "ROUTE_NAME": "52",
   "ROUTE_ORD": 37,
   "STOP_ID": 305032805,
   "LNG": 127.163905,
   "BRT_SUBID": "0",
   "ROUTE_ID": 305000971,
   "STOP_NAME": "봉동회차지",
   "SERVICE_ID": 36739,
   "NODE_ID": 305032805,
   "STOP_ORD": 37,
   "LAT": 35.92499
  },
  {
   "ROUTE_NAME": "52",
   "ROUTE_ORD": 38,
   "STOP_ID": 312102029,
   "LNG": 127.1702271,
   "BRT_SUBID": "0",
   "ROUTE_ID": 305000971,
   "STOP_NAME": "양전마을",
   "SERVICE_ID": 32029,
   "NODE_ID": 312102029,
   "STOP_ORD": 38,
   "LAT": 35.92013308
  },
  {
   "ROUTE_NAME": "52",
   "ROUTE_ORD": 39,
   "STOP_ID": 312102027,
   "LNG": 127.17583291,
   "BRT_SUBID": "0",
   "ROUTE_ID": 305000971,
   "STOP_NAME": "신지동마을",
   "SERVICE_ID": 32027,
   "NODE_ID": 312102027,
   "STOP_ORD": 39,
   "LAT": 35.91594461
  },
  {
   "ROUTE_NAME": "52",
   "ROUTE_ORD": 40,
   "STOP_ID": 312102025,
   "LNG": 127.17952891,
   "BRT_SUBID": "0",
   "ROUTE_ID": 305000971,
   "STOP_NAME": "지동마을",
   "SERVICE_ID": 32025,
   "NODE_ID": 312102025,
   "STOP_ORD": 40,
   "LAT": 35.91263963
  },
  {
   "ROUTE_NAME": "52",
   "ROUTE_ORD": 41,
   "STOP_ID": 312101663,
   "LNG": 127.18212507,
   "BRT_SUBID": "0",
   "ROUTE_ID": 305000971,
   "STOP_NAME": "지암입구",
   "SERVICE_ID": 31662,
   "NODE_ID": 312101663,
   "STOP_ORD": 41,
   "LAT": 35.90909664
  },
  {
   "ROUTE_NAME": "52",
   "ROUTE_ORD": 42,
   "STOP_ID": 312032146,
   "LNG": 127.18441404,
   "BRT_SUBID": "0",
   "ROUTE_ID": 305000971,
   "STOP_NAME": "황제식품",
   "SERVICE_ID": 32146,
   "NODE_ID": 312032146,
   "STOP_ORD": 42,
   "LAT": 35.90529574
  },
  {
   "ROUTE_NAME": "52",
   "ROUTE_ORD": 43,
   "STOP_ID": 312101635,
   "LNG": 127.18501009,
   "BRT_SUBID": "0",
   "ROUTE_ID": 305000971,
   "STOP_NAME": "신봉마을",
   "SERVICE_ID": 31634,
   "NODE_ID": 312101635,
   "STOP_ORD": 43,
   "LAT": 35.90349994
  },
  {
   "ROUTE_NAME": "52",
   "ROUTE_ORD": 44,
   "STOP_ID": 312101652,
   "LNG": 127.17877556,
   "BRT_SUBID": "0",
   "ROUTE_ID": 305000971,
   "STOP_NAME": "덕암마을",
   "SERVICE_ID": 31651,
   "NODE_ID": 312101652,
   "STOP_ORD": 44,
   "LAT": 35.90388552
  },
  {
   "ROUTE_NAME": "52",
   "ROUTE_ORD": 45,
   "STOP_ID": 312101642,
   "LNG": 127.17092453,
   "BRT_SUBID": "0",
   "ROUTE_ID": 305000971,
   "STOP_NAME": "지암마을",
   "SERVICE_ID": 31641,
   "NODE_ID": 312101642,
   "STOP_ORD": 45,
   "LAT": 35.90451218
  },
  {
   "ROUTE_NAME": "52",
   "ROUTE_ORD": 46,
   "STOP_ID": 305032742,
   "LNG": 127.1673034,
   "BRT_SUBID": "0",
   "ROUTE_ID": 305000971,
   "STOP_NAME": "운곡모아미래도1차아파트",
   "SERVICE_ID": 36676,
   "NODE_ID": 305032742,
   "STOP_ORD": 46,
   "LAT": 35.90378502
  },
  {
   "ROUTE_NAME": "52",
   "ROUTE_ORD": 47,
   "STOP_ID": 312102030,
   "LNG": 127.16176944,
   "BRT_SUBID": "0",
   "ROUTE_ID": 305000971,
   "STOP_NAME": "완주군청",
   "SERVICE_ID": 32030,
   "NODE_ID": 312102030,
   "STOP_ORD": 47,
   "LAT": 35.90364372
  }
 ]
}