{
 "fetched_at": "2026-05-26T13:11:06+09:00",
 "stdid": 305000993,
 "resultList": [
  {
   "ROUTE_NAME": "60",
   "ROUTE_ORD": 1,
   "STOP_ID": 312032799,
   "LNG": 127.1221527,
   "BRT_SUBID": "0",
   "ROUTE_ID": 305000993,
   "STOP_NAME": "모아엘가아파트",
   "SERVICE_ID": 36268,
   "NODE_ID": 312032799,
   "STOP_ORD": 1,
   "LAT": 35.962892
  },
  {
   "ROUTE_NAME": "60",
   "ROUTE_ORD": 2,
   "STOP_ID": 312032800,
   "LNG": 127.1218837,
   "BRT_SUBID": "0",
   "ROUTE_ID": 305000993,
   "STOP_NAME": "대주코레스",
   "SERVICE_ID": 36269,
   "NODE_ID": 312032800,
   "STOP_ORD": 2,
   "LAT": 35.9658213
  },
  {
   "ROUTE_NAME": "60",
   "ROUTE_ORD": 3,
   "STOP_ID": 312032801,
   "LNG": 127.1181823,
   "BRT_SUBID": "0",
   "ROUTE_ID": 305000993,
   "STOP_NAME": "LS엠트론엔진공장",
   "SERVICE_ID": 36270,
   "NODE_ID": 312032801,
   "STOP_ORD": 3,
   "LAT": 35.9698397
  },
  {
   "ROUTE_NAME": "60",
   "ROUTE_ORD": 4,
   "STOP_ID": 305032829,
   "LNG": 127.11578586,
   "BRT_SUBID": "0",
   "ROUTE_ID": 305000993,
   "STOP_NAME": "비나텍완주공장",
   "SERVICE_ID": 36763,
   "NODE_ID": 305032829,
   "STOP_ORD": 4,
   "LAT": 35.98051664
  },
  {
   "ROUTE_NAME": "60",
   "ROUTE_ORD": 5,
   "STOP_ID": 305032831,
   "LNG": 127.10974924,
   "BRT_SUBID": "0",
   "ROUTE_ID": 305000993,
   "STOP_NAME": "한국가스안전공사",
   "SERVICE_ID": 36765,
   "NODE_ID": 305032831,
   "STOP_ORD": 5,
   "LAT": 35.97916821
  },
  {
   "ROUTE_NAME": "60",
   "ROUTE_ORD": 6,
   "STOP_ID": 305032834,
   "LNG": 127.10712219,
   "BRT_SUBID": "0",
   "ROUTE_ID": 305000993,
   "STOP_NAME": "전북테크노파크 신뢰성평가센터",
   "SERVICE_ID": 36768,
   "NODE_ID": 305032834,
   "STOP_ORD": 6,
   "LAT": 35.97155964
  },
  {
   "ROUTE_NAME": "60",
   "ROUTE_ORD": 7,
   "STOP_ID": 305032835,
   "LNG": 127.11252173,
   "BRT_SUBID": "0",
   "ROUTE_ID": 305000993,
   "STOP_NAME": "다한산업 앞 정류장",
   "SERVICE_ID": 36769,
   "NODE_ID": 305032835,
   "STOP_ORD": 7,
   "LAT": 35.96779203
  },
  {
   "ROUTE_NAME": "60",
   "ROUTE_ORD": 8,
   "STOP_ID": 312101908,
   "LNG": 127.11651697,
   "BRT_SUBID": "0",
   "ROUTE_ID": 305000993,
   "STOP_NAME": "산장마을",
   "SERVICE_ID": 31907,
   "NODE_ID": 312101908,
   "STOP_ORD": 8,
   "LAT": 35.96151374
  },
  {
   "ROUTE_NAME": "60",
   "ROUTE_ORD": 9,
   "STOP_ID": 312101911,
   "LNG": 127.12275813,
   "BRT_SUBID": "0",
   "ROUTE_ID": 305000993,
   "STOP_NAME": "둔산코아루2차아파트",
   "SERVICE_ID": 31910,
   "NODE_ID": 312101911,
   "STOP_ORD": 9,
   "LAT": 35.96190743
  }
 ]
}