{
 "fetched_at": "2026-05-26T13:11:09+09:00",
 "stdid": 305001213,
 "resultList": [
  {
   "ROUTE_NAME": "14",
   "ROUTE_ORD": 1,
   "STOP_ID": 305100597,
   "LNG": 127.16328644,
   "BRT_SUBID": "0",
   "ROUTE_ID": 305001213,
   "STOP_NAME": "낙수정",
   "SERVICE_ID": 30597,
   "NODE_ID": 305100597,
   "STOP_ORD": 1,
   "LAT": 35.81430964
  },
  {
   "ROUTE_NAME": "14",
   "ROUTE_ORD": 2,
   "STOP_ID": 305100633,
   "LNG": 127.161115,
   "BRT_SUBID": "0",
   "ROUTE_ID": 305001213,
   "STOP_NAME": "남노촌",
   "SERVICE_ID": 30633,
   "NODE_ID": 305100633,
   "STOP_ORD": 2,
   "LAT": 35.81601
  },
  {
   "ROUTE_NAME": "14",
   "ROUTE_ORD": 3,
   "STOP_ID": 306132149,
   "LNG": 127.159426,
   "BRT_SUBID": "0",
   "ROUTE_ID": 305001213,
   "STOP_NAME": "원산파크",
   "SERVICE_ID": 32149,
   "NODE_ID": 306132149,
   "STOP_ORD": 3,
   "LAT": 35.817554
  },
  {
   "ROUTE_NAME": "14",
   "ROUTE_ORD": 4,
   "STOP_ID": 305100699,
   "LNG": 127.161561,
   "BRT_SUBID": "0",
   "ROUTE_ID": 305001213,
   "STOP_NAME": "기린봉",
   "SERVICE_ID": 30699,
   "NODE_ID": 305100699,
   "STOP_ORD": 4,
   "LAT": 35.821678
  },
  {
   "ROUTE_NAME": "14",
   "ROUTE_ORD": 5,
   "STOP_ID": 305100737,
   "LNG": 127.158406,
   "BRT_SUBID": "0",
   "ROUTE_ID": 305001213,
   "STOP_NAME": "천사마을",
   "SERVICE_ID": 30737,
   "NODE_ID": 305100737,
   "STOP_ORD": 5,
   "LAT": 35.823453
  },
  {
   "ROUTE_NAME": "14",
   "ROUTE_ORD": 6,
   "STOP_ID": 305100733,
   "LNG": 127.154485,
   "BRT_SUBID": "0",
   "ROUTE_ID": 305001213,
   "STOP_NAME": "전주제일고 입구",
   "SERVICE_ID": 30733,
   "NODE_ID": 305100733,
   "STOP_ORD": 6,
   "LAT": 35.823152
  },
  {
   "ROUTE_NAME": "14",
   "ROUTE_ORD": 7,
   "STOP_ID": 305100703,
   "LNG": 127.15228,
   "BRT_SUBID": "0",
   "ROUTE_ID": 305001213,
   "STOP_NAME": "기린대로 병무청",
   "SERVICE_ID": 30703,
   "NODE_ID": 305100703,
   "STOP_ORD": 7,
   "LAT": 35.82096
  },
  {
   "ROUTE_NAME": "14",
   "ROUTE_ORD": 8,
   "STOP_ID": 305100616,
   "LNG": 127.154533,
   "BRT_SUBID": "0",
   "ROUTE_ID": 305001213,
   "STOP_NAME": "오목대.한옥마을",
   "SERVICE_ID": 30616,
   "NODE_ID": 305100616,
   "STOP_ORD": 8,
   "LAT": 35.815445
  },
  {
   "ROUTE_NAME": "14",
   "ROUTE_ORD": 9,
   "STOP_ID": 305100585,
   "LNG": 127.156529,
   "BRT_SUBID": "0",
   "ROUTE_ID": 305001213,
   "STOP_NAME": "한벽루자만벽화마을",
   "SERVICE_ID": 30585,
   "NODE_ID": 305100585,
   "STOP_ORD": 9,
   "LAT": 35.813583
  },
  {
   "ROUTE_NAME": "14",
   "ROUTE_ORD": 10,
   "STOP_ID": 305102012,
   "LNG": 127.157902,
   "BRT_SUBID": "0",
   "ROUTE_ID": 305001213,
   "STOP_NAME": "국립무형유산원",
   "SERVICE_ID": 32012,
   "NODE_ID": 305102012,
   "STOP_ORD": 10,
   "LAT": 35.810773
  },
  {
   "ROUTE_NAME": "14",
   "ROUTE_ORD": 11,
   "STOP_ID": 305102014,
   "LNG": 127.154367,
   "BRT_SUBID": "0",
   "ROUTE_ID": 305001213,
   "STOP_NAME": "교육대학교",
   "SERVICE_ID": 32014,
   "NODE_ID": 305102014,
   "STOP_ORD": 11,
   "LAT": 35.810424
  },
  {
   "ROUTE_NAME": "14",
   "ROUTE_ORD": 12,
   "STOP_ID": 305032505,
   "LNG": 127.1512547,
   "BRT_SUBID": "0",
   "ROUTE_ID": 305001213,
   "STOP_NAME": "전주천.서학예술마을",
   "SERVICE_ID": 36439,
   "NODE_ID": 305032505,
   "STOP_ORD": 12,
   "LAT": 35.810165
  },
  {
   "ROUTE_NAME": "14",
   "ROUTE_ORD": 13,
   "STOP_ID": 305100558,
   "LNG": 127.14973099,
   "BRT_SUBID": "0",
   "ROUTE_ID": 305001213,
   "STOP_NAME": "남부시장",
   "SERVICE_ID": 30558,
   "NODE_ID": 305100558,
   "STOP_ORD": 13,
   "LAT": 35.81132263
  },
  {
   "ROUTE_NAME": "14",
   "ROUTE_ORD": 14,
   "STOP_ID": 305100602,
   "LNG": 127.14835688,
   "BRT_SUBID": "0",
   "ROUTE_ID": 305001213,
   "STOP_NAME": "전동성당.한옥마을",
   "SERVICE_ID": 30602,
   "NODE_ID": 305100602,
   "STOP_ORD": 14,
   "LAT": 35.81462071
  },
  {
   "ROUTE_NAME": "14",
   "ROUTE_ORD": 15,
   "STOP_ID": 305100643,
   "LNG": 127.14748975,
   "BRT_SUBID": "0",
   "ROUTE_ID": 305001213,
   "STOP_NAME": "전북예술회관",
   "SERVICE_ID": 30643,
   "NODE_ID": 305100643,
   "STOP_ORD": 15,
   "LAT": 35.81706612
  },
  {
   "ROUTE_NAME": "14",
   "ROUTE_ORD": 16,
   "STOP_ID": 305100657,
   "LNG": 127.14790878,
   "BRT_SUBID": "0",
   "ROUTE_ID": 305001213,
   "STOP_NAME": "충경로KT전주지사",
   "SERVICE_ID": 30657,
   "NODE_ID": 305100657,
   "STOP_ORD": 16,
   "LAT": 35.81872473
  },
  {
   "ROUTE_NAME": "14",
   "ROUTE_ORD": 17,
   "STOP_ID": 305100677,
   "LNG": 127.15085875,
   "BRT_SUBID": "0",
   "ROUTE_ID": 305001213,
   "STOP_NAME": "동부시장",
   "SERVICE_ID": 30677,
   "NODE_ID": 305100677,
   "STOP_ORD": 17,
   "LAT": 35.81964957
  },
  {
   "ROUTE_NAME": "14",
   "ROUTE_ORD": 18,
   "STOP_ID": 305100704,
   "LNG": 127.152248,
   "BRT_SUBID": "0",
   "ROUTE_ID": 305001213,
   "STOP_NAME": "기린대로 병무청",
   "SERVICE_ID": 30704,
   "NODE_ID": 305100704,
   "STOP_ORD": 18,
   "LAT": 35.82136
  },
  {
   "ROUTE_NAME": "14",
   "ROUTE_ORD": 19,
   "STOP_ID": 305100729,
   "LNG": 127.155225,
   "BRT_SUBID": "0",
   "ROUTE_ID": 305001213,
   "STOP_NAME": "전주제일고 입구",
   "SERVICE_ID": 30729,
   "NODE_ID": 305100729,
   "STOP_ORD": 19,
   "LAT": 35.822994
  },
  {
   "ROUTE_NAME": "14",
   "ROUTE_ORD": 20,
   "STOP_ID": 305100735,
   "LNG": 127.15924108,
   "BRT_SUBID": "0",
   "ROUTE_ID": 305001213,
   "STOP_NAME": "천사마을",
   "SERVICE_ID": 30735,
   "NODE_ID": 305100735,
   "STOP_ORD": 20,
   "LAT": 35.82349591
  },
  {
   "ROUTE_NAME": "14",
   "ROUTE_ORD": 21,
   "STOP_ID": 305032337,
   "LNG": 127.1614752,
   "BRT_SUBID": "0",
   "ROUTE_ID": 305001213,
   "STOP_NAME": "마당재사거리",
   "SERVICE_ID": 36231,
   "NODE_ID": 305032337,
   "STOP_ORD": 21,
   "LAT": 35.8238429
  },
  {
   "ROUTE_NAME": "14",
   "ROUTE_ORD": 22,
   "STOP_ID": 305100696,
   "LNG": 127.16133,
   "BRT_SUBID": "0",
   "ROUTE_ID": 305001213,
   "STOP_NAME": "기린봉",
   "SERVICE_ID": 30696,
   "NODE_ID": 305100696,
   "STOP_ORD": 22,
   "LAT": 35.821743
  },
  {
   "ROUTE_NAME": "14",
   "ROUTE_ORD": 23,
   "STOP_ID": 306132150,
   "LNG": 127.159324,
   "BRT_SUBID": "0",
   "ROUTE_ID": 305001213,
   "STOP_NAME": "원산파크",
   "SERVICE_ID": 32150,
   "NODE_ID": 306132150,
   "STOP_ORD": 23,
   "LAT": 35.817541
  },
  {
   "ROUTE_NAME": "14",
   "ROUTE_ORD": 24,
   "STOP_ID": 305100627,
   "LNG": 127.16095519,
   "BRT_SUBID": "0",
   "ROUTE_ID": 305001213,
   "STOP_NAME": "남노촌",
   "SERVICE_ID": 30627,
   "NODE_ID": 305100627,
   "STOP_ORD": 24,
   "LAT": 35.8159242
  },
  {
   "ROUTE_NAME": "14",
   "ROUTE_ORD": 25,
   "STOP_ID": 305100596,
   "LNG": 127.162988,
   "BRT_SUBID": "0",
   "ROUTE_ID": 305001213,
   "STOP_NAME": "낙수정",
   "SERVICE_ID": 30596,
   "NODE_ID": 305100596,
   "STOP_ORD": 25,
   "LAT": 35.814105
  }
 ]
}